{"Alameda": {"Peet's Coffee & Tea": {"id": "49c0397bf964a52055551fe3", "loc": {"address": "5959 Shellmound Street, Suite 85,", "lat": 37.841617, "lng": -122.293626, "labeledLatLngs": [{"label": "display", "lat": 37.841617, "lng": -122.293626}], "postalCode": "94608", "cc": "US", "city": "Emeryville", "state": "CA", "country": "United States", "formattedAddress": ["5959 Shellmound Street, Suite 85,", "Emeryville, CA 94608", "United States"]}, "cat": [{"id": "4bf58dd8d48988d1e0931735", "name": "Coffee Shop", "pluralName": "Coffee Shops", "shortName": "Coffee Shop", "icon": {"prefix": "https://ss3.4sqi.net/img/categories_v2/food/coffeeshop_", "suffix": ".png"}, "primary": true}]}, "Drake's Dealership": {"id": "55a6eee8498e39b5dd60f45a", "loc": {"address": "2325 Broadway", "crossStreet": "at 23rd St", "lat": 37.8128252267716, "lng": -122.26674184918737, "labeledLatLngs": [{"label": "display", "lat": 37.8128252267716, "lng": -122.26674184918737}], "postalCode": "94612", "cc": "US", "city": "Oakland", "state": "CA", "country": "United States", "formattedAddress": ["2325 Broadway (at 23rd St)", "Oakland, CA 94612", "United States"]}, "cat": [{"id": "4bf58dd8d48988d117941735", "name": "Beer Garden", "pluralName": "Beer Gardens", "shortName": "Beer Garden", "icon": {"prefix": "https://ss3.4sqi.net/img/categories_v2/nightlife/beergarden_", "suffix": ".png"}, "primary": true}]}, "Nyum Bai": {"id": "5a8b2bf691eaca3c3cb196cc", "loc": {"address": "3340 E 12th St Ste 11", "crossStreet": "33rd ave", "lat": 37.77618320102944, "lng": -122.22431526439176, "labeledLatLngs": [{"label": "display", "lat": 37.77618320102944, "lng": -122.22431526439176}], "postalCode": "94601", "cc": "US", "city": "Oakland", "state": "CA", "country": "United States", "formattedAddress": ["3340 E 12th St Ste 11 (33rd ave)", "Oakland, CA 94601", "United States"]}, "cat": [{"id": "52e81612bcbc57f1066b7a03", "name": "Cambodian Restaurant", "pluralName": "Cambodian Restaurants", "shortName": "Cambodian", "icon": {"prefix": "https://ss3.4sqi.net/img/categories_v2/food/default_", "suffix": ".png"}, "primary": true}]}, "Shan Dong": {"id": "4a22d464f964a520927d1fe3", "loc": {"address": "328 10th St #101", "crossStreet": "Webster St.", "lat": 37.80050024323571, "lng": -122.27004558577991, "labeledLatLngs": [{"label": "display", "lat": 37.80050024323571, "lng": -122.27004558577991}], "postalCode": "94607", "cc": "US", "city": "Oakland", "state": "CA", "country": "United States", "formattedAddress": ["328 10th St #101 (Webster St.)", "Oakland, CA 94607", "United States"]}, "cat": [{"id": "4bf58dd8d48988d145941735", "name": "Chinese Restaurant", "pluralName": "Chinese Restaurants", "shortName": "Chinese", "icon": {"prefix": "https://ss3.4sqi.net/img/categories_v2/food/asian_", "suffix": ".png"}, "primary": true}]}, "Xolo": {"id": "4d8982c1b799a35d13059863", "loc": {"address": "1916 Telegraph Ave", "crossStreet": "at 19th St", "lat": 37.808422, "lng": -122.26973, "labeledLatLngs": [{"label": "display", "lat": 37.808422, "lng": -122.26973}], "postalCode": "94612", "cc": "US", "city": "Oakland", "state": "CA", "country": "United States", "formattedAddress": ["1916 Telegraph Ave (at 19th St)", "Oakland, CA 94612", "United States"]}, "cat": [{"id": "4bf58dd8d48988d1c1941735", "name": "Mexican Restaurant", "pluralName": "Mexican Restaurants", "shortName": "Mexican", "icon": {"prefix": "https://ss3.4sqi.net/img/categories_v2/food/mexican_", "suffix": ".png"}, "primary": true}]}, "Blue Bottle Coffee": {"id": "517aba92498ea18ae773f544", "loc": {"address": "4270 Broadway", "crossStreet": "at Mather St", "lat": 37.83113, "lng": -122.254186, "labeledLatLngs": [{"label": "display", "lat": 37.83113, "lng": -122.254186}], "postalCode": "94611", "cc": "US", "city": "Oakland", "state": "CA", "country": "United States", "formattedAddress": ["4270 Broadway (at Mather St)", "Oakland, CA 94611", "United States"]}, "cat": [{"id": "4bf58dd8d48988d1e0931735", "name": "Coffee Shop", "pluralName": "Coffee Shops", "shortName": "Coffee Shop", "icon": {"prefix": "https://ss3.4sqi.net/img/categories_v2/food/coffeeshop_", "suffix": ".png"}, "primary": true}]}, "La Christa's Cafe": {"id": "541647bb498e05d0b8de232a", "loc": {"address": "2511 Telegraph Ave", "crossStreet": "25th", "lat": 37.814602835818484, "lng": -122.26852632585704, "labeledLatLngs": [{"label": "display", "lat": 37.814602835818484, "lng": -122.26852632585704}], "postalCode": "94612", "cc": "US", "city": "Oakland", "state": "CA", "country": "United States", "formattedAddress": ["2511 Telegraph Ave (25th)", "Oakland, CA 94612", "United States"]}, "cat": [{"id": "4bf58dd8d48988d14f941735", "name": "Southern / Soul Food Restaurant", "pluralName": "Southern / Soul Food Restaurants", "shortName": "Southern / Soul", "icon": {"prefix": "https://ss3.4sqi.net/img/categories_v2/food/southern_", "suffix": ".png"}, "primary": true}]}, "The Trappist": {"id": "4792385cf964a520524d1fe3", "loc": {"address": "460 8th St", "crossStreet": "btwn Broadway & Washington St", "lat": 37.800497559962956, "lng": -122.27420032024384, "labeledLatLngs": [{"label": "display", "lat": 37.800497559962956, "lng": -122.27420032024384}], "postalCode": "94607", "cc": "US", "city": "Oakland", "state": "CA", "country": "United States", "formattedAddress": ["460 8th St (btwn Broadway & Washington St)", "Oakland, CA 94607", "United States"]}, "cat": [{"id": "56aa371ce4b08b9a8d57356c", "name": "Beer Bar", "pluralName": "Beer Bars", "shortName": "Beer Bar", "icon": {"prefix": "https://ss3.4sqi.net/img/categories_v2/nightlife/pub_", "suffix": ".png"}, "primary": true}]}, "Arthur Mac's Tap & Snack": {"id": "58c978cc5eef1170c1c210ba", "loc": {"address": "4006 Martin Luther King Jr Way", "lat": 37.82979364966446, "lng": -122.26819187474287, "labeledLatLngs": [{"label": "display", "lat": 37.82979364966446, "lng": -122.26819187474287}], "postalCode": "94609", "cc": "US", "city": "Oakland", "state": "CA", "country": "United States", "formattedAddress": ["4006 Martin Luther King Jr Way", "Oakland, CA 94609", "United States"]}, "cat": [{"id": "4bf58dd8d48988d117941735", "name": "Beer Garden", "pluralName": "Beer Gardens", "shortName": "Beer Garden", "icon": {"prefix": "https://ss3.4sqi.net/img/categories_v2/nightlife/beergarden_", "suffix": ".png"}, "primary": true}]}, "Tierra Mia Coffee": {"id": "52df0e4011d219aa8d0d0e11", "loc": {"address": "2001 Broadway", "crossStreet": "at 20th St", "lat": 37.80916405386587, "lng": -122.26823870068337, "labeledLatLngs": [{"label": "display", "lat": 37.80916405386587, "lng": -122.26823870068337}], "postalCode": "94612", "cc": "US", "city": "Oakland", "state": "CA", "country": "United States", "formattedAddress": ["2001 Broadway (at 20th St)", "Oakland, CA 94612", "United States"]}, "cat": [{"id": "4bf58dd8d48988d1e0931735", "name": "Coffee Shop", "pluralName": "Coffee Shops", "shortName": "Coffee Shop", "icon": {"prefix": "https://ss3.4sqi.net/img/categories_v2/food/coffeeshop_", "suffix": ".png"}, "primary": true}]}, "McDonald's": {"id": "4b37d9caf964a520704725e3", "loc": {"address": "4514 Telegraph Ave", "crossStreet": "at 45th Ave", "lat": 37.8335255, "lng": -122.2629628, "labeledLatLngs": [{"label": "display", "lat": 37.8335255, "lng": -122.2629628}], "postalCode": "94609", "cc": "US", "city": "Oakland", "state": "CA", "country": "United States", "formattedAddress": ["4514 Telegraph Ave (at 45th Ave)", "Oakland, CA 94609", "United States"]}, "cat": [{"id": "4bf58dd8d48988d16e941735", "name": "Fast Food Restaurant", "pluralName": "Fast Food Restaurants", "shortName": "Fast Food", "icon": {"prefix": "https://ss3.4sqi.net/img/categories_v2/food/fastfood_", "suffix": ".png"}, "primary": true}]}, "The Lake Chalet Seafood Bar & Grill": {"id": "4ae27f53f964a520af8e21e3", "loc": {"address": "1520 Lakeside Dr", "lat": 37.80222845991472, "lng": -122.26162756511117, "labeledLatLngs": [{"label": "display", "lat": 37.80222845991472, "lng": -122.26162756511117}], "postalCode": "94612", "cc": "US", "city": "Oakland", "state": "CA", "country": "United States", "formattedAddress": ["1520 Lakeside Dr", "Oakland, CA 94612", "United States"]}, "cat": [{"id": "4bf58dd8d48988d1ce941735", "name": "Seafood Restaurant", "pluralName": "Seafood Restaurants", "shortName": "Seafood", "icon": {"prefix": "https://ss3.4sqi.net/img/categories_v2/food/seafood_", "suffix": ".png"}, "primary": true}]}, "Farley's East": {"id": "4a5f41d5f964a52052bf1fe3", "loc": {"address": "33 Grand Ave", "crossStreet": "at Broadway", "lat": 37.81140954675457, "lng": -122.2660780177822, "labeledLatLngs": [{"label": "display", "lat": 37.81140954675457, "lng": -122.2660780177822}], "postalCode": "94612", "cc": "US", "city": "Oakland", "state": "CA", "country": "United States", "formattedAddress": ["33 Grand Ave (at Broadway)", "Oakland, CA 94612", "United States"]}, "cat": [{"id": "4bf58dd8d48988d1e0931735", "name": "Coffee Shop", "pluralName": "Coffee Shops", "shortName": "Coffee Shop", "icon": {"prefix": "https://ss3.4sqi.net/img/categories_v2/food/coffeeshop_", "suffix": ".png"}, "primary": true}]}, "IKEA Restaurant & Cafe": {"id": "4fac1967e4b0077c44e78fc5", "loc": {"address": "4400 Shellmound St", "lat": 37.83115600662363, "lng": -122.29240212016042, "labeledLatLngs": [{"label": "display", "lat": 37.83115600662363, "lng": -122.29240212016042}], "postalCode": "94608", "cc": "US", "city": "Emeryville", "state": "CA", "country": "United States", "formattedAddress": ["4400 Shellmound St", "Emeryville, CA 94608", "United States"]}, "cat": [{"id": "4bf58dd8d48988d1c6941735", "name": "Scandinavian Restaurant", "pluralName": "Scandinavian Restaurants", "shortName": "Scandinavian", "icon": {"prefix": "https://ss3.4sqi.net/img/categories_v2/food/scandinavian_", "suffix": ".png"}, "primary": true}]}, "In-N-Out Burger": {"id": "5516cea6498ea63bf9695e68", "loc": {"address": "555 Willie Stargell Ave", "crossStreet": "at Webster St", "lat": 37.78381641897224, "lng": -122.27714538574219, "labeledLatLngs": [{"label": "display", "lat": 37.78381641897224, "lng": -122.27714538574219}], "postalCode": "94501", "cc": "US", "city": "Alameda", "state": "CA", "country": "United States", "formattedAddress": ["555 Willie Stargell Ave (at Webster St)", "Alameda, CA 94501", "United States"]}, "cat": [{"id": "4bf58dd8d48988d16c941735", "name": "Burger Joint", "pluralName": "Burger Joints", "shortName": "Burgers", "icon": {"prefix": "https://ss3.4sqi.net/img/categories_v2/food/burger_", "suffix": ".png"}, "primary": true}]}, "Arizmendi Bakery": {"id": "46aa908cf964a52063491fe3", "loc": {"address": "3265 Lakeshore Ave", "crossStreet": "at Lake Park Ave", "lat": 37.81066647714583, "lng": -122.24481041159486, "labeledLatLngs": [{"label": "display", "lat": 37.81066647714583, "lng": -122.24481041159486}], "postalCode": "94610", "cc": "US", "city": "Oakland", "state": "CA", "country": "United States", "formattedAddress": ["3265 Lakeshore Ave (at Lake Park Ave)", "Oakland, CA 94610", "United States"]}, "cat": [{"id": "4bf58dd8d48988d16a941735", "name": "Bakery", "pluralName": "Bakeries", "shortName": "Bakery", "icon": {"prefix": "https://ss3.4sqi.net/img/categories_v2/food/bakery_", "suffix": ".png"}, "primary": true}]}, "Cholita Linda": {"id": "52fd936b498e9c816a9e42e0", "loc": {"address": "4923 Telegraph Ave", "crossStreet": "at 49th St", "lat": 37.83617413695148, "lng": -122.26278223600943, "labeledLatLngs": [{"label": "display", "lat": 37.83617413695148, "lng": -122.26278223600943}], "postalCode": "94609", "cc": "US", "city": "Oakland", "state": "CA", "country": "United States", "formattedAddress": ["4923 Telegraph Ave (at 49th St)", "Oakland, CA 94609", "United States"]}, "cat": [{"id": "4bf58dd8d48988d1be941735", "name": "Latin American Restaurant", "pluralName": "Latin American Restaurants", "shortName": "Latin American", "icon": {"prefix": "https://ss3.4sqi.net/img/categories_v2/food/latinamerican_", "suffix": ".png"}, "primary": true}]}, "Starbucks inside Safeway": {"id": "5837303e424f937971aa57ba", "loc": {"lat": 37.785651501841315, "lng": -122.28083690789113, "labeledLatLngs": [{"label": "display", "lat": 37.785651501841315, "lng": -122.28083690789113}], "cc": "US", "city": "Alameda", "state": "CA", "country": "United States", "formattedAddress": ["Alameda, CA", "United States"]}, "cat": [{"id": "4bf58dd8d48988d1e0931735", "name": "Coffee Shop", "pluralName": "Coffee Shops", "shortName": "Coffee Shop", "icon": {"prefix": "https://ss3.4sqi.net/img/categories_v2/food/coffeeshop_", "suffix": ".png"}, "primary": true}]}, "Ramen Shop": {"id": "50d675d1e4b047bb04184422", "loc": {"address": "5812 College Ave", "crossStreet": "at Oak Grove Ave", "lat": 37.846331278077486, "lng": -122.2519192995559, "labeledLatLngs": [{"label": "display", "lat": 37.846331278077486, "lng": -122.2519192995559}], "postalCode": "94618", "cc": "US", "city": "Oakland", "state": "CA", "country": "United States", "formattedAddress": ["5812 College Ave (at Oak Grove Ave)", "Oakland, CA 94618", "United States"]}, "cat": [{"id": "55a59bace4b013909087cb24", "name": "Ramen Restaurant", "pluralName": "Ramen Restaurants", "shortName": "Ramen", "icon": {"prefix": "https://ss3.4sqi.net/img/categories_v2/food/ramen_", "suffix": ".png"}, "primary": true}]}, "Belcampo": {"id": "5b36e60afd16bb002c98d6b2", "loc": {"address": "55 Webster St", "lat": 37.794059563187616, "lng": -122.27494630825116, "labeledLatLngs": [{"label": "display", "lat": 37.794059563187616, "lng": -122.27494630825116}], "postalCode": "94607", "cc": "US", "neighborhood": "Jack London Square", "city": "Oakland", "state": "CA", "country": "United States", "formattedAddress": ["55 Webster St", "Oakland, CA 94607", "United States"]}, "cat": [{"id": "4bf58dd8d48988d14e941735", "name": "American Restaurant", "pluralName": "American Restaurants", "shortName": "American", "icon": {"prefix": "https://ss3.4sqi.net/img/categories_v2/food/default_", "suffix": ".png"}, "primary": true}]}, "Farmhouse Kitchen": {"id": "5b5779006dcf04002cf4c679", "loc": {"address": "336 Water St", "lat": 37.7940883491769, "lng": -122.27542072604021, "labeledLatLngs": [{"label": "display", "lat": 37.7940883491769, "lng": -122.27542072604021}], "postalCode": "94607", "cc": "US", "city": "Oakland", "state": "CA", "country": "United States", "formattedAddress": ["336 Water St", "Oakland, CA 94607", "United States"]}, "cat": [{"id": "4bf58dd8d48988d149941735", "name": "Thai Restaurant", "pluralName": "Thai Restaurants", "shortName": "Thai", "icon": {"prefix": "https://ss3.4sqi.net/img/categories_v2/food/thai_", "suffix": ".png"}, "primary": true}]}, "Dyafa": {"id": "5acf77430457b720f25edff3", "loc": {"address": "44 Webster St", "lat": 37.79364247174332, "lng": -122.27444707712422, "labeledLatLngs": [{"label": "display", "lat": 37.79364247174332, "lng": -122.27444707712422}], "postalCode": "94607", "cc": "US", "city": "Oakland", "state": "CA", "country": "United States", "formattedAddress": ["44 Webster St", "Oakland, CA 94607", "United States"]}, "cat": [{"id": "4bf58dd8d48988d115941735", "name": "Middle Eastern Restaurant", "pluralName": "Middle Eastern Restaurants", "shortName": "Middle Eastern", "icon": {"prefix": "https://ss3.4sqi.net/img/categories_v2/food/middleeastern_", "suffix": ".png"}, "primary": true}]}, "Blind Tiger": {"id": "56d64679498e3ed8bc19624b", "loc": {"address": "2600B Telegraph Avenue", "crossStreet": "26th St.", "lat": 37.81584825769534, "lng": -122.26768968277607, "labeledLatLngs": [{"label": "display", "lat": 37.81584825769534, "lng": -122.26768968277607}], "postalCode": "94612", "cc": "US", "city": "Oakland", "state": "CA", "country": "United States", "formattedAddress": ["2600B Telegraph Avenue (26th St.)", "Oakland, CA 94612", "United States"]}, "cat": [{"id": "4bf58dd8d48988d142941735", "name": "Asian Restaurant", "pluralName": "Asian Restaurants", "shortName": "Asian", "icon": {"prefix": "https://ss3.4sqi.net/img/categories_v2/food/asian_", "suffix": ".png"}, "primary": true}]}, "Gogi Time": {"id": "51e748ab7dd2b94b6f5762db", "loc": {"address": "2600 Telegraph Ave", "crossStreet": "at 26th Ave", "lat": 37.81563744613821, "lng": -122.26792576686564, "labeledLatLngs": [{"label": "display", "lat": 37.81563744613821, "lng": -122.26792576686564}], "postalCode": "94612", "cc": "US", "city": "Oakland", "state": "CA", "country": "United States", "formattedAddress": ["2600 Telegraph Ave (at 26th Ave)", "Oakland, CA 94612", "United States"]}, "cat": [{"id": "4bf58dd8d48988d113941735", "name": "Korean Restaurant", "pluralName": "Korean Restaurants", "shortName": "Korean", "icon": {"prefix": "https://ss3.4sqi.net/img/categories_v2/food/korean_", "suffix": ".png"}, "primary": true}]}, "Lungomare": {"id": "5111d971e4b030dc42b2e7c8", "loc": {"address": "1 Broadway", "crossStreet": "Embarcadero", "lat": 37.79477651594031, "lng": -122.27740827691646, "labeledLatLngs": [{"label": "display", "lat": 37.79477651594031, "lng": -122.27740827691646}], "postalCode": "94607", "cc": "US", "city": "Oakland", "state": "CA", "country": "United States", "formattedAddress": ["1 Broadway (Embarcadero)", "Oakland, CA 94607", "United States"]}, "cat": [{"id": "4bf58dd8d48988d110941735", "name": "Italian Restaurant", "pluralName": "Italian Restaurants", "shortName": "Italian", "icon": {"prefix": "https://ss3.4sqi.net/img/categories_v2/food/italian_", "suffix": ".png"}, "primary": true}]}, "Angel Cakes": {"id": "56f704f9498ee4cd037619b6", "loc": {"address": "745 5th St", "lat": 37.80076132189942, "lng": -122.28208977585737, "labeledLatLngs": [{"label": "display", "lat": 37.80076132189942, "lng": -122.28208977585737}], "postalCode": "94607", "cc": "US", "city": "Oakland", "state": "CA", "country": "United States", "formattedAddress": ["745 5th St", "Oakland, CA 94607", "United States"]}, "cat": [{"id": "4bf58dd8d48988d16a941735", "name": "Bakery", "pluralName": "Bakeries", "shortName": "Bakery", "icon": {"prefix": "https://ss3.4sqi.net/img/categories_v2/food/bakery_", "suffix": ".png"}, "primary": true}]}, "Mua Oakland Bar & Restaurant": {"id": "4a18358cf964a5208e791fe3", "loc": {"address": "2442A Webster St", "crossStreet": "at Broadway", "lat": 37.81410757834559, "lng": -122.26433198353656, "labeledLatLngs": [{"label": "display", "lat": 37.81410757834559, "lng": -122.26433198353656}], "postalCode": "94612", "cc": "US", "city": "Oakland", "state": "CA", "country": "United States", "formattedAddress": ["2442A Webster St (at Broadway)", "Oakland, CA 94612", "United States"]}, "cat": [{"id": "4bf58dd8d48988d14e941735", "name": "American Restaurant", "pluralName": "American Restaurants", "shortName": "American", "icon": {"prefix": "https://ss3.4sqi.net/img/categories_v2/food/default_", "suffix": ".png"}, "primary": true}]}, "Telegraph Bar and Beer Garden": {"id": "50709df7e4b0c9f5cfd97f4a", "loc": {"address": "2318 Telegraph Ave", "crossStreet": "23rd St", "lat": 37.81285542879667, "lng": -122.26856564669941, "labeledLatLngs": [{"label": "display", "lat": 37.81285542879667, "lng": -122.26856564669941}], "postalCode": "94612", "cc": "US", "city": "Oakland", "state": "CA", "country": "United States", "formattedAddress": ["2318 Telegraph Ave (23rd St)", "Oakland, CA 94612", "United States"]}, "cat": [{"id": "4bf58dd8d48988d117941735", "name": "Beer Garden", "pluralName": "Beer Gardens", "shortName": "Beer Garden", "icon": {"prefix": "https://ss3.4sqi.net/img/categories_v2/nightlife/beergarden_", "suffix": ".png"}, "primary": true}]}, "Donut Savant": {"id": "4fac1f72e4b054e6d929c5ba", "loc": {"address": "1934 Broadway", "crossStreet": "at 20th St", "lat": 37.80830943995559, "lng": -122.26861057572039, "labeledLatLngs": [{"label": "display", "lat": 37.80830943995559, "lng": -122.26861057572039}], "postalCode": "94612", "cc": "US", "city": "Oakland", "state": "CA", "country": "United States", "formattedAddress": ["1934 Broadway (at 20th St)", "Oakland, CA 94612", "United States"]}, "cat": [{"id": "4bf58dd8d48988d148941735", "name": "Donut Shop", "pluralName": "Donut Shops", "shortName": "Donuts", "icon": {"prefix": "https://ss3.4sqi.net/img/categories_v2/food/donuts_", "suffix": ".png"}, "primary": true}]}, "Bicycle Coffee Co.": {"id": "528fd62711d29c24ebb52051", "loc": {"address": "364 2nd St", "crossStreet": "at Webster St", "lat": 37.79543378073442, "lng": -122.27430314199263, "labeledLatLngs": [{"label": "display", "lat": 37.79543378073442, "lng": -122.27430314199263}], "postalCode": "94607", "cc": "US", "city": "Oakland", "state": "CA", "country": "United States", "formattedAddress": ["364 2nd St (at Webster St)", "Oakland, CA 94607", "United States"]}, "cat": [{"id": "4bf58dd8d48988d1e0931735", "name": "Coffee Shop", "pluralName": "Coffee Shops", "shortName": "Coffee Shop", "icon": {"prefix": "https://ss3.4sqi.net/img/categories_v2/food/coffeeshop_", "suffix": ".png"}, "primary": true}]}, "Marufuku Ramen": {"id": "5a97715c037be11099fd3834", "loc": {"address": "4828 Telegraph Ave", "lat": 37.83510638627532, "lng": -122.26276888233988, "labeledLatLngs": [{"label": "display", "lat": 37.83510638627532, "lng": -122.26276888233988}], "postalCode": "94609", "cc": "US", "city": "Oakland", "state": "CA", "country": "United States", "formattedAddress": ["4828 Telegraph Ave", "Oakland, CA 94609", "United States"]}, "cat": [{"id": "55a59bace4b013909087cb24", "name": "Ramen Restaurant", "pluralName": "Ramen Restaurants", "shortName": "Ramen", "icon": {"prefix": "https://ss3.4sqi.net/img/categories_v2/food/ramen_", "suffix": ".png"}, "primary": true}]}, "Chow Oakland": {"id": "5a851035e2d4aa547736d59c", "loc": {"address": "Piedmont Avenue", "lat": 37.823650505611155, "lng": -122.25594978886163, "labeledLatLngs": [{"label": "display", "lat": 37.823650505611155, "lng": -122.25594978886163}], "postalCode": "94611", "cc": "US", "city": "Oakland", "state": "CA", "country": "United States", "formattedAddress": ["Piedmont Avenue", "Oakland, CA 94611", "United States"]}, "cat": [{"id": "4bf58dd8d48988d1c4941735", "name": "Restaurant", "pluralName": "Restaurants", "shortName": "Restaurant", "icon": {"prefix": "https://ss3.4sqi.net/img/categories_v2/food/default_", "suffix": ".png"}, "primary": true}]}, "IKEA Swedish Food Market": {"id": "4fc5517ee4b013c9bb895fe4", "loc": {"address": "4400 Shellmound St", "lat": 37.83146629356369, "lng": -122.29235304146692, "labeledLatLngs": [{"label": "display", "lat": 37.83146629356369, "lng": -122.29235304146692}], "postalCode": "94608", "cc": "US", "city": "Emeryville", "state": "CA", "country": "United States", "formattedAddress": ["4400 Shellmound St", "Emeryville, CA 94608", "United States"]}, "cat": [{"id": "4bf58dd8d48988d1c6941735", "name": "Scandinavian Restaurant", "pluralName": "Scandinavian Restaurants", "shortName": "Scandinavian", "icon": {"prefix": "https://ss3.4sqi.net/img/categories_v2/food/scandinavian_", "suffix": ".png"}, "primary": true}]}, "Burma Superstar": {"id": "49f7e4d7f964a520e96c1fe3", "loc": {"address": "4721 Telegraph Ave", "crossStreet": "btw 47th & 48th", "lat": 37.83474769071598, "lng": -122.26309354853059, "labeledLatLngs": [{"label": "display", "lat": 37.83474769071598, "lng": -122.26309354853059}], "postalCode": "94609", "cc": "US", "city": "Oakland", "state": "CA", "country": "United States", "formattedAddress": ["4721 Telegraph Ave (btw 47th & 48th)", "Oakland, CA 94609", "United States"]}, "cat": [{"id": "56aa371be4b08b9a8d573568", "name": "Burmese Restaurant", "pluralName": "Burmese Restaurants", "shortName": "Burmese", "icon": {"prefix": "https://ss3.4sqi.net/img/categories_v2/food/asian_", "suffix": ".png"}, "primary": true}]}, "Homeroom": {"id": "4d3251acb6093704a5e3f5df", "loc": {"address": "400 40th St", "crossStreet": "at Shafter Ave", "lat": 37.82850266429037, "lng": -122.2599524082852, "labeledLatLngs": [{"label": "display", "lat": 37.82850266429037, "lng": -122.2599524082852}], "postalCode": "94609", "cc": "US", "city": "Oakland", "state": "CA", "country": "United States", "formattedAddress": ["400 40th St (at Shafter Ave)", "Oakland, CA 94609", "United States"]}, "cat": [{"id": "4bf58dd8d48988d1bf941735", "name": "Mac & Cheese Joint", "pluralName": "Mac & Cheese Joints", "shortName": "Mac & Cheese", "icon": {"prefix": "https://ss3.4sqi.net/img/categories_v2/food/macandcheese_", "suffix": ".png"}, "primary": true}]}, "Public Market Emeryville": {"id": "43027e00f964a5200c271fe3", "loc": {"address": "5959 Shellmound St", "lat": 37.84132859018417, "lng": -122.29387012691633, "labeledLatLngs": [{"label": "display", "lat": 37.84132859018417, "lng": -122.29387012691633}], "postalCode": "94608", "cc": "US", "city": "Emeryville", "state": "CA", "country": "United States", "formattedAddress": ["5959 Shellmound St", "Emeryville, CA 94608", "United States"]}, "cat": [{"id": "4bf58dd8d48988d120951735", "name": "Food Court", "pluralName": "Food Courts", "shortName": "Food Court", "icon": {"prefix": "https://ss3.4sqi.net/img/categories_v2/shops/food_foodcourt_", "suffix": ".png"}, "primary": true}]}, "Fentons Creamery & Restaurant": {"id": "463c53f3f964a5202d461fe3", "loc": {"address": "4226 Piedmont Ave", "crossStreet": "at Entrada Ave", "lat": 37.8279973189658, "lng": -122.250095307827, "postalCode": "94611", "cc": "US", "city": "Oakland", "state": "CA", "country": "United States", "formattedAddress": ["4226 Piedmont Ave (at Entrada Ave)", "Oakland, CA 94611", "United States"]}, "cat": [{"id": "4bf58dd8d48988d1c9941735", "name": "Ice Cream Shop", "pluralName": "Ice Cream Shops", "shortName": "Ice Cream", "icon": {"prefix": "https://ss3.4sqi.net/img/categories_v2/food/icecream_", "suffix": ".png"}, "primary": true}]}, "Starbucks": {"id": "4abe4a8df964a520778c20e3", "loc": {"address": "720 Atlantic Ave", "lat": 37.779587, "lng": -122.275665, "labeledLatLngs": [{"label": "display", "lat": 37.779587, "lng": -122.275665}], "postalCode": "94501", "cc": "US", "city": "Alameda", "state": "CA", "country": "United States", "formattedAddress": ["720 Atlantic Ave", "Alameda, CA 94501", "United States"]}, "cat": [{"id": "4bf58dd8d48988d1e0931735", "name": "Coffee Shop", "pluralName": "Coffee Shops", "shortName": "Coffee Shop", "icon": {"prefix": "https://ss3.4sqi.net/img/categories_v2/food/coffeeshop_", "suffix": ".png"}, "primary": true}]}, "Philz Coffee": {"id": "550a2592498e39ec12b5721b", "loc": {"address": "6310 College Ave", "lat": 37.850215, "lng": -122.252257, "labeledLatLngs": [{"label": "display", "lat": 37.850215, "lng": -122.252257}], "postalCode": "94618", "cc": "US", "city": "Oakland", "state": "CA", "country": "United States", "formattedAddress": ["6310 College Ave", "Oakland, CA 94618", "United States"]}, "cat": [{"id": "4bf58dd8d48988d1e0931735", "name": "Coffee Shop", "pluralName": "Coffee Shops", "shortName": "Coffee Shop", "icon": {"prefix": "https://ss3.4sqi.net/img/categories_v2/food/coffeeshop_", "suffix": ".png"}, "primary": true}]}, "Grand Lake Kitchen": {"id": "509ffff5067d4e701338c501", "loc": {"address": "576 Grand Ave", "lat": 37.8093162503602, "lng": -122.24994020410011, "labeledLatLngs": [{"label": "display", "lat": 37.8093162503602, "lng": -122.24994020410011}], "postalCode": "94610", "cc": "US", "city": "Oakland", "state": "CA", "country": "United States", "formattedAddress": ["576 Grand Ave", "Oakland, CA 94610", "United States"]}, "cat": [{"id": "4bf58dd8d48988d143941735", "name": "Breakfast Spot", "pluralName": "Breakfast Spots", "shortName": "Breakfast", "icon": {"prefix": "https://ss3.4sqi.net/img/categories_v2/food/breakfast_", "suffix": ".png"}, "primary": true}]}, "Highwire Coffee Roasters": {"id": "463cff1df964a5203b461fe3", "loc": {"address": "5655 College Ave", "crossStreet": "in Rockridge Market Hall", "lat": 37.843758109371485, "lng": -122.25174143431809, "labeledLatLngs": [{"label": "display", "lat": 37.843758109371485, "lng": -122.25174143431809}], "postalCode": "94618", "cc": "US", "city": "Oakland", "state": "CA", "country": "United States", "formattedAddress": ["5655 College Ave (in Rockridge Market Hall)", "Oakland, CA 94618", "United States"]}, "cat": [{"id": "4bf58dd8d48988d1e0931735", "name": "Coffee Shop", "pluralName": "Coffee Shops", "shortName": "Coffee Shop", "icon": {"prefix": "https://ss3.4sqi.net/img/categories_v2/food/coffeeshop_", "suffix": ".png"}, "primary": true}]}, "Autobahn Cafe": {"id": "4b99473af964a520b46f35e3", "loc": {"address": "571 5th St", "crossStreet": "btwn Clay & Jefferson", "lat": 37.79913870471915, "lng": -122.27808014404962, "labeledLatLngs": [{"label": "display", "lat": 37.79913870471915, "lng": -122.27808014404962}], "postalCode": "94607", "cc": "US", "city": "Oakland", "state": "CA", "country": "United States", "formattedAddress": ["571 5th St (btwn Clay & Jefferson)", "Oakland, CA 94607", "United States"]}, "cat": [{"id": "4bf58dd8d48988d16d941735", "name": "Caf\u00e9", "pluralName": "Caf\u00e9s", "shortName": "Caf\u00e9", "icon": {"prefix": "https://ss3.4sqi.net/img/categories_v2/food/cafe_", "suffix": ".png"}, "primary": true}]}, "Beauty's Bagel Shop": {"id": "4f6527c1e4b02cbb7fbc9e98", "loc": {"address": "3838 Telegraph Ave", "crossStreet": "btwn W MacArthur Blvd & 38th St.", "lat": 37.82783115240899, "lng": -122.26472891128223, "labeledLatLngs": [{"label": "display", "lat": 37.82783115240899, "lng": -122.26472891128223}], "postalCode": "94609", "cc": "US", "city": "Oakland", "state": "CA", "country": "United States", "formattedAddress": ["3838 Telegraph Ave (btwn W MacArthur Blvd & 38th St.)", "Oakland, CA 94609", "United States"]}, "cat": [{"id": "4bf58dd8d48988d179941735", "name": "Bagel Shop", "pluralName": "Bagel Shops", "shortName": "Bagels", "icon": {"prefix": "https://ss3.4sqi.net/img/categories_v2/food/bagels_", "suffix": ".png"}, "primary": true}]}}, "Alpine": {"Alps House Cafe": {"id": "59c963796f0aa23f35ab2cef", "loc": {"address": "14841 Hwy 89", "lat": 38.694819, "lng": -119.780011, "labeledLatLngs": [{"label": "display", "lat": 38.694819, "lng": -119.780011}], "postalCode": "96120", "cc": "US", "city": "Markleeville", "state": "CA", "country": "United States", "formattedAddress": ["14841 Hwy 89", "Markleeville, CA 96120", "United States"]}, "cat": [{"id": "4bf58dd8d48988d16d941735", "name": "Caf\u00e9", "pluralName": "Caf\u00e9s", "shortName": "Caf\u00e9", "icon": {"prefix": "https://ss3.4sqi.net/img/categories_v2/food/cafe_", "suffix": ".png"}, "primary": true}]}, "The Deli": {"id": "4c436cc274ffc928453074cc", "loc": {"lat": 38.69453723240906, "lng": -119.78243734574072, "labeledLatLngs": [{"label": "display", "lat": 38.69453723240906, "lng": -119.78243734574072}], "postalCode": "96120", "cc": "US", "city": "Markleeville", "state": "CA", "country": "United States", "formattedAddress": ["Markleeville, CA 96120", "United States"]}, "cat": [{"id": "4bf58dd8d48988d1c5941735", "name": "Sandwich Place", "pluralName": "Sandwich Places", "shortName": "Sandwiches", "icon": {"prefix": "https://ss3.4sqi.net/img/categories_v2/food/deli_", "suffix": ".png"}, "primary": true}]}, "Stonefly": {"id": "51c87cb2498ed5c61e8d8fad", "loc": {"address": "14821 Hwy 89", "lat": 38.69339413534515, "lng": -119.78243734574072, "labeledLatLngs": [{"label": "display", "lat": 38.69339413534515, "lng": -119.78243734574072}], "postalCode": "96120", "cc": "US", "city": "Markleeville", "state": "CA", "country": "United States", "formattedAddress": ["14821 Hwy 89", "Markleeville, CA 96120", "United States"]}, "cat": [{"id": "4bf58dd8d48988d14e941735", "name": "American Restaurant", "pluralName": "American Restaurants", "shortName": "American", "icon": {"prefix": "https://ss3.4sqi.net/img/categories_v2/food/default_", "suffix": ".png"}, "primary": true}]}, "Wolf Creek Restaurant": {"id": "4c41ddcfda3dc928fa84c9b9", "loc": {"address": "14830 Hwy 89", "lat": 38.694821, "lng": -119.780515, "labeledLatLngs": [{"label": "display", "lat": 38.694821, "lng": -119.780515}], "postalCode": "96120", "cc": "US", "city": "Markleeville", "state": "CA", "country": "United States", "formattedAddress": ["14830 Hwy 89", "Markleeville, CA 96120", "United States"]}, "cat": [{"id": "4bf58dd8d48988d14e941735", "name": "American Restaurant", "pluralName": "American Restaurants", "shortName": "American", "icon": {"prefix": "https://ss3.4sqi.net/img/categories_v2/food/default_", "suffix": ".png"}, "primary": true}]}, "Markleeville Toll Station": {"id": "51dc8292498e2c9142a48ec4", "loc": {"address": "14856 Highway 89", "lat": 38.693390726386184, "lng": -119.78346066709062, "labeledLatLngs": [{"label": "display", "lat": 38.693390726386184, "lng": -119.78346066709062}], "postalCode": "96120", "cc": "US", "city": "Markleeville", "state": "CA", "country": "United States", "formattedAddress": ["14856 Highway 89", "Markleeville, CA 96120", "United States"]}, "cat": [{"id": "4bf58dd8d48988d147941735", "name": "Diner", "pluralName": "Diners", "shortName": "Diner", "icon": {"prefix": "https://ss3.4sqi.net/img/categories_v2/food/diner_", "suffix": ".png"}, "primary": true}]}}, "Amador": {"Mother Lode Market & Deli": {"id": "4b452d32f964a520200726e3", "loc": {"address": "36 Main St", "crossStreet": "btw Water & Court", "lat": 38.34870118447223, "lng": -120.77395099015345, "labeledLatLngs": [{"label": "display", "lat": 38.34870118447223, "lng": -120.77395099015345}], "postalCode": "95642", "cc": "US", "city": "Jackson", "state": "CA", "country": "United States", "formattedAddress": ["36 Main St (btw Water & Court)", "Jackson, CA 95642", "United States"]}, "cat": [{"id": "4bf58dd8d48988d1c5941735", "name": "Sandwich Place", "pluralName": "Sandwich Places", "shortName": "Sandwiches", "icon": {"prefix": "https://ss3.4sqi.net/img/categories_v2/food/deli_", "suffix": ".png"}, "primary": true}]}, "Rosebud's Cafe": {"id": "4f773ea6e4b0e91fa6be006d", "loc": {"address": "26 Main St", "lat": 38.348472893776425, "lng": -120.77382437327948, "labeledLatLngs": [{"label": "display", "lat": 38.348472893776425, "lng": -120.77382437327948}], "postalCode": "95642", "cc": "US", "city": "Jackson", "state": "CA", "country": "United States", "formattedAddress": ["26 Main St", "Jackson, CA 95642", "United States"]}, "cat": [{"id": "4bf58dd8d48988d16d941735", "name": "Caf\u00e9", "pluralName": "Caf\u00e9s", "shortName": "Caf\u00e9", "icon": {"prefix": "https://ss3.4sqi.net/img/categories_v2/food/cafe_", "suffix": ".png"}, "primary": true}]}, "Mel & Fayes Diner": {"id": "4b6f73a9f964a5201df12ce3", "loc": {"address": "31 N State Highway 49-88", "lat": 38.34819637883019, "lng": -120.77537655830383, "labeledLatLngs": [{"label": "display", "lat": 38.34819637883019, "lng": -120.77537655830383}], "postalCode": "95642", "cc": "US", "city": "Jackson", "state": "CA", "country": "United States", "formattedAddress": ["31 N State Highway 49-88", "Jackson, CA 95642", "United States"]}, "cat": [{"id": "4bf58dd8d48988d16c941735", "name": "Burger Joint", "pluralName": "Burger Joints", "shortName": "Burgers", "icon": {"prefix": "https://ss3.4sqi.net/img/categories_v2/food/burger_", "suffix": ".png"}, "primary": true}]}, "Caffe Tazza and Antiques": {"id": "4f321c3619836c91c7b6e688", "loc": {"address": "214 N Main St", "lat": 38.350213, "lng": -120.774886, "labeledLatLngs": [{"label": "display", "lat": 38.350213, "lng": -120.774886}], "postalCode": "95642", "cc": "US", "city": "Jackson", "state": "CA", "country": "United States", "formattedAddress": ["214 N Main St", "Jackson, CA 95642", "United States"]}, "cat": [{"id": "4d4b7105d754a06374d81259", "name": "Food", "pluralName": "Food", "shortName": "Food", "icon": {"prefix": "https://ss3.4sqi.net/img/categories_v2/food/default_", "suffix": ".png"}, "primary": true}]}, "Vinciguerra Ravioli Company": {"id": "4e4c9ea0bd413c4cc66ac7e5", "loc": {"address": "225 Sutter St", "lat": 38.351152217638926, "lng": -120.77585315989187, "labeledLatLngs": [{"label": "display", "lat": 38.351152217638926, "lng": -120.77585315989187}], "postalCode": "95642", "cc": "US", "city": "Jackson", "state": "CA", "country": "United States", "formattedAddress": ["225 Sutter St", "Jackson, CA 95642", "United States"]}, "cat": [{"id": "4bf58dd8d48988d110941735", "name": "Italian Restaurant", "pluralName": "Italian Restaurants", "shortName": "Italian", "icon": {"prefix": "https://ss3.4sqi.net/img/categories_v2/food/italian_", "suffix": ".png"}, "primary": true}]}, "Denny's": {"id": "4bbe928a4e7bd13aaf439b7f", "loc": {"address": "200 S State Highway 49", "lat": 38.3461194, "lng": -120.7711223, "labeledLatLngs": [{"label": "display", "lat": 38.3461194, "lng": -120.7711223}], "postalCode": "95642", "cc": "US", "city": "Jackson", "state": "CA", "country": "United States", "formattedAddress": ["200 S State Highway 49", "Jackson, CA 95642", "United States"]}, "cat": [{"id": "4bf58dd8d48988d147941735", "name": "Diner", "pluralName": "Diners", "shortName": "Diner", "icon": {"prefix": "https://ss3.4sqi.net/img/categories_v2/food/diner_", "suffix": ".png"}, "primary": true}]}, "paisanos pizzeria": {"id": "539a0c04498e6ead0c59b240", "loc": {"lat": 38.343576, "lng": -120.76982, "labeledLatLngs": [{"label": "display", "lat": 38.343576, "lng": -120.76982}], "cc": "US", "city": "Jackson", "state": "CA", "country": "United States", "formattedAddress": ["Jackson, CA", "United States"]}, "cat": [{"id": "4bf58dd8d48988d1ca941735", "name": "Pizza Place", "pluralName": "Pizza Places", "shortName": "Pizza", "icon": {"prefix": "https://ss3.4sqi.net/img/categories_v2/food/pizza_", "suffix": ".png"}, "primary": true}]}, "KFC": {"id": "4bf35a8b6a31d13a809f942e", "loc": {"address": "531 Highway 49", "lat": 38.343534, "lng": -120.769011, "labeledLatLngs": [{"label": "display", "lat": 38.343534, "lng": -120.769011}], "postalCode": "95642", "cc": "US", "city": "Jackson", "state": "CA", "country": "United States", "formattedAddress": ["531 Highway 49", "Jackson, CA 95642", "United States"]}, "cat": [{"id": "4bf58dd8d48988d16e941735", "name": "Fast Food Restaurant", "pluralName": "Fast Food Restaurants", "shortName": "Fast Food", "icon": {"prefix": "https://ss3.4sqi.net/img/categories_v2/food/fastfood_", "suffix": ".png"}, "primary": true}]}, "Subway": {"id": "4c2a55da57a9c9b6bc53f467", "loc": {"address": "525 California 49", "lat": 38.36249368, "lng": -120.802679, "labeledLatLngs": [{"label": "display", "lat": 38.36249368, "lng": -120.802679}], "cc": "US", "city": "Jackson", "state": "CA", "country": "United States", "formattedAddress": ["525 California 49", "Jackson, CA", "United States"]}, "cat": [{"id": "4bf58dd8d48988d1c5941735", "name": "Sandwich Place", "pluralName": "Sandwich Places", "shortName": "Sandwiches", "icon": {"prefix": "https://ss3.4sqi.net/img/categories_v2/food/deli_", "suffix": ".png"}, "primary": true}]}, "Cocina Michoacana": {"id": "58a5ffd84287c9458c02b38b", "loc": {"address": "535 S State Highway 49", "lat": 38.343072, "lng": -120.769301, "labeledLatLngs": [{"label": "display", "lat": 38.343072, "lng": -120.769301}], "postalCode": "95642", "cc": "US", "city": "Jackson", "state": "CA", "country": "United States", "formattedAddress": ["535 S State Highway 49", "Jackson, CA 95642", "United States"]}, "cat": [{"id": "4bf58dd8d48988d1c1941735", "name": "Mexican Restaurant", "pluralName": "Mexican Restaurants", "shortName": "Mexican", "icon": {"prefix": "https://ss3.4sqi.net/img/categories_v2/food/mexican_", "suffix": ".png"}, "primary": true}]}, "Strings Italian Cafe": {"id": "4bd25930b221c9b68c9bd7d0", "loc": {"address": "11976 State Highway 88", "lat": 38.36285435535087, "lng": -120.8025243166812, "labeledLatLngs": [{"label": "display", "lat": 38.36285435535087, "lng": -120.8025243166812}], "postalCode": "95642", "cc": "US", "city": "Jackson", "state": "CA", "country": "United States", "formattedAddress": ["11976 State Highway 88", "Jackson, CA 95642", "United States"]}, "cat": [{"id": "4bf58dd8d48988d110941735", "name": "Italian Restaurant", "pluralName": "Italian Restaurants", "shortName": "Italian", "icon": {"prefix": "https://ss3.4sqi.net/img/categories_v2/food/italian_", "suffix": ".png"}, "primary": true}]}, "Margaret's Cafe & Bakery": {"id": "50a54bfbe4b0bf59ea75e353", "loc": {"address": "12222 New York Ranch Rd", "lat": 38.38623680058925, "lng": -120.73340372103726, "labeledLatLngs": [{"label": "display", "lat": 38.38623680058925, "lng": -120.73340372103726}], "postalCode": "95642", "cc": "US", "city": "Jackson", "state": "CA", "country": "United States", "formattedAddress": ["12222 New York Ranch Rd", "Jackson, CA 95642", "United States"]}, "cat": [{"id": "4bf58dd8d48988d16d941735", "name": "Caf\u00e9", "pluralName": "Caf\u00e9s", "shortName": "Caf\u00e9", "icon": {"prefix": "https://ss3.4sqi.net/img/categories_v2/food/cafe_", "suffix": ".png"}, "primary": true}]}, "Jackson Rancheria Buffet": {"id": "4fdc0179e4b057598ae2ac71", "loc": {"lat": 38.38670821324278, "lng": -120.73399285003102, "labeledLatLngs": [{"label": "display", "lat": 38.38670821324278, "lng": -120.73399285003102}], "postalCode": "95642", "cc": "US", "city": "Jackson", "state": "CA", "country": "United States", "formattedAddress": ["Jackson, CA 95642", "United States"]}, "cat": [{"id": "52e81612bcbc57f1066b79f4", "name": "Buffet", "pluralName": "Buffets", "shortName": "Buffet", "icon": {"prefix": "https://ss3.4sqi.net/img/categories_v2/food/default_", "suffix": ".png"}, "primary": true}]}, "Dickey's Barbecue Pit": {"id": "51214260e4b02b37b08347d0", "loc": {"lat": 38.369571685791016, "lng": -120.79923248291016, "labeledLatLngs": [{"label": "display", "lat": 38.369571685791016, "lng": -120.79923248291016}], "postalCode": "95642", "cc": "US", "city": "Jackson", "state": "CA", "country": "United States", "formattedAddress": ["Jackson, CA 95642", "United States"]}, "cat": [{"id": "4bf58dd8d48988d1df931735", "name": "BBQ Joint", "pluralName": "BBQ Joints", "shortName": "BBQ", "icon": {"prefix": "https://ss3.4sqi.net/img/categories_v2/food/bbqalt_", "suffix": ".png"}, "primary": true}]}, "Panda House": {"id": "4c3e476a83a3a59361e2ed33", "loc": {"address": "12300 Martell Rd", "lat": 38.36548, "lng": -120.798294, "labeledLatLngs": [{"label": "display", "lat": 38.36548, "lng": -120.798294}], "postalCode": "95642", "cc": "US", "city": "Jackson", "state": "CA", "country": "United States", "formattedAddress": ["12300 Martell Rd", "Jackson, CA 95642", "United States"]}, "cat": [{"id": "4bf58dd8d48988d145941735", "name": "Chinese Restaurant", "pluralName": "Chinese Restaurants", "shortName": "Chinese", "icon": {"prefix": "https://ss3.4sqi.net/img/categories_v2/food/asian_", "suffix": ".png"}, "primary": true}]}, "Highway House Restaurant": {"id": "5898a9f3f595726e5161399b", "loc": {"lat": 38.341783, "lng": -120.766391, "labeledLatLngs": [{"label": "display", "lat": 38.341783, "lng": -120.766391}], "postalCode": "95642", "cc": "US", "city": "Jackson", "state": "CA", "country": "United States", "formattedAddress": ["Jackson, CA 95642", "United States"]}, "cat": [{"id": "4bf58dd8d48988d16d941735", "name": "Caf\u00e9", "pluralName": "Caf\u00e9s", "shortName": "Caf\u00e9", "icon": {"prefix": "https://ss3.4sqi.net/img/categories_v2/food/cafe_", "suffix": ".png"}, "primary": true}]}, "El Torero": {"id": "4c0aeec9ffb8c9b66a846c61", "loc": {"address": "11968 State Highway 88", "lat": 38.36184496080689, "lng": -120.80240769440884, "labeledLatLngs": [{"label": "display", "lat": 38.36184496080689, "lng": -120.80240769440884}], "postalCode": "95642", "cc": "US", "city": "Jackson", "state": "CA", "country": "United States", "formattedAddress": ["11968 State Highway 88", "Jackson, CA 95642", "United States"]}, "cat": [{"id": "4bf58dd8d48988d1c1941735", "name": "Mexican Restaurant", "pluralName": "Mexican Restaurants", "shortName": "Mexican", "icon": {"prefix": "https://ss3.4sqi.net/img/categories_v2/food/mexican_", "suffix": ".png"}, "primary": true}]}, "Taco Bell": {"id": "4b8a085cf964a520935c32e3", "loc": {"address": "541 S State Highway 49", "lat": 38.342841120174505, "lng": -120.7679035567654, "labeledLatLngs": [{"label": "display", "lat": 38.342841120174505, "lng": -120.7679035567654}], "postalCode": "95642", "cc": "US", "city": "Jackson", "state": "CA", "country": "United States", "formattedAddress": ["541 S State Highway 49", "Jackson, CA 95642", "United States"]}, "cat": [{"id": "4bf58dd8d48988d16e941735", "name": "Fast Food Restaurant", "pluralName": "Fast Food Restaurants", "shortName": "Fast Food", "icon": {"prefix": "https://ss3.4sqi.net/img/categories_v2/food/fastfood_", "suffix": ".png"}, "primary": true}]}, "McDonald's": {"id": "4be97e259a54a59365200b11", "loc": {"address": "12201 Trade Center Rd", "lat": 38.37100136746083, "lng": -120.79827270937813, "labeledLatLngs": [{"label": "display", "lat": 38.37100136746083, "lng": -120.79827270937813}], "postalCode": "95642", "cc": "US", "city": "Jackson", "state": "CA", "country": "United States", "formattedAddress": ["12201 Trade Center Rd", "Jackson, CA 95642", "United States"]}, "cat": [{"id": "4bf58dd8d48988d16e941735", "name": "Fast Food Restaurant", "pluralName": "Fast Food Restaurants", "shortName": "Fast Food", "icon": {"prefix": "https://ss3.4sqi.net/img/categories_v2/food/fastfood_", "suffix": ".png"}, "primary": true}]}, "Burger King": {"id": "4c26630c5c5ca593611646fe", "loc": {"address": "11950 State Highway 88", "lat": 38.362533706659526, "lng": -120.80296173691744, "labeledLatLngs": [{"label": "display", "lat": 38.362533706659526, "lng": -120.80296173691744}], "postalCode": "95642", "cc": "US", "city": "Jackson", "state": "CA", "country": "United States", "formattedAddress": ["11950 State Highway 88", "Jackson, CA 95642", "United States"]}, "cat": [{"id": "4bf58dd8d48988d16e941735", "name": "Fast Food Restaurant", "pluralName": "Fast Food Restaurants", "shortName": "Fast Food", "icon": {"prefix": "https://ss3.4sqi.net/img/categories_v2/food/fastfood_", "suffix": ".png"}, "primary": true}]}, "ampm": {"id": "5afe3016e679bc002c95ed2e", "loc": {"address": "10923 HWY 49", "lat": 38.3672, "lng": -120.79641, "labeledLatLngs": [{"label": "display", "lat": 38.3672, "lng": -120.79641}], "postalCode": "95642", "cc": "US", "city": "Jackson", "state": "CA", "country": "United States", "formattedAddress": ["10923 HWY 49", "Jackson, CA 95642", "United States"]}, "cat": [{"id": "4bf58dd8d48988d1c7941735", "name": "Snack Place", "pluralName": "Snack Places", "shortName": "Snacks", "icon": {"prefix": "https://ss3.4sqi.net/img/categories_v2/food/snacks_", "suffix": ".png"}, "primary": true}]}, "Wing Dingers": {"id": "58f956bc75a6ea21542230e2", "loc": {"lat": 38.340984, "lng": -120.765618, "labeledLatLngs": [{"label": "display", "lat": 38.340984, "lng": -120.765618}], "postalCode": "95642", "cc": "US", "city": "Jackson", "state": "CA", "country": "United States", "formattedAddress": ["Jackson, CA 95642", "United States"]}, "cat": [{"id": "4bf58dd8d48988d14c941735", "name": "Wings Joint", "pluralName": "Wings Joints", "shortName": "Wings", "icon": {"prefix": "https://ss3.4sqi.net/img/categories_v2/food/wings_", "suffix": ".png"}, "primary": true}]}, "Jose's": {"id": "4e4c9eb9bd413c4cc66ac8bf", "loc": {"address": "609 S State Highway 49", "lat": 38.342062194650644, "lng": -120.76682460829679, "labeledLatLngs": [{"label": "display", "lat": 38.342062194650644, "lng": -120.76682460829679}], "postalCode": "95642", "cc": "US", "city": "Jackson", "state": "CA", "country": "United States", "formattedAddress": ["609 S State Highway 49", "Jackson, CA 95642", "United States"]}, "cat": [{"id": "4bf58dd8d48988d1c1941735", "name": "Mexican Restaurant", "pluralName": "Mexican Restaurants", "shortName": "Mexican", "icon": {"prefix": "https://ss3.4sqi.net/img/categories_v2/food/mexican_", "suffix": ".png"}, "primary": true}]}, "TOGO'S Sandwiches": {"id": "55ad442e498e00ffe0738edc", "loc": {"address": "12010 Industry Blvd", "lat": 38.369366, "lng": -120.800863, "labeledLatLngs": [{"label": "display", "lat": 38.369366, "lng": -120.800863}], "postalCode": "95642", "cc": "US", "city": "Jackson", "state": "CA", "country": "United States", "formattedAddress": ["12010 Industry Blvd", "Jackson, CA 95642", "United States"]}, "cat": [{"id": "4bf58dd8d48988d1c5941735", "name": "Sandwich Place", "pluralName": "Sandwich Places", "shortName": "Sandwiches", "icon": {"prefix": "https://ss3.4sqi.net/img/categories_v2/food/deli_", "suffix": ".png"}, "primary": true}]}, "Jack In The Box": {"id": "4ecb3510722efb00f80e5b78", "loc": {"lat": 38.37075333906229, "lng": -120.79912572278232, "labeledLatLngs": [{"label": "display", "lat": 38.37075333906229, "lng": -120.79912572278232}], "postalCode": "95642", "cc": "US", "city": "Jackson", "state": "CA", "country": "United States", "formattedAddress": ["Jackson, CA 95642", "United States"]}, "cat": [{"id": "4bf58dd8d48988d16e941735", "name": "Fast Food Restaurant", "pluralName": "Fast Food Restaurants", "shortName": "Fast Food", "icon": {"prefix": "https://ss3.4sqi.net/img/categories_v2/food/fastfood_", "suffix": ".png"}, "primary": true}]}, "Pacific Grill": {"id": "507b9a50e4b027ceded65d9e", "loc": {"lat": 38.38646279672279, "lng": -120.73407166543691, "labeledLatLngs": [{"label": "display", "lat": 38.38646279672279, "lng": -120.73407166543691}], "postalCode": "95642", "cc": "US", "city": "Jackson", "state": "CA", "country": "United States", "formattedAddress": ["Jackson, CA 95642", "United States"]}, "cat": [{"id": "4bf58dd8d48988d142941735", "name": "Asian Restaurant", "pluralName": "Asian Restaurants", "shortName": "Asian", "icon": {"prefix": "https://ss3.4sqi.net/img/categories_v2/food/asian_", "suffix": ".png"}, "primary": true}]}, "Fisherman's Wharf Buffet": {"id": "54029a71498ea2d8e5756216", "loc": {"address": "12222 New York Ranch Rd", "lat": 38.386764988568274, "lng": -120.73407636347196, "labeledLatLngs": [{"label": "display", "lat": 38.386764988568274, "lng": -120.73407636347196}], "postalCode": "95642", "cc": "US", "city": "Jackson", "state": "CA", "country": "United States", "formattedAddress": ["12222 New York Ranch Rd", "Jackson, CA 95642", "United States"]}, "cat": [{"id": "52e81612bcbc57f1066b79f4", "name": "Buffet", "pluralName": "Buffets", "shortName": "Buffet", "icon": {"prefix": "https://ss3.4sqi.net/img/categories_v2/food/default_", "suffix": ".png"}, "primary": true}]}, "Java Drive": {"id": "4d6bdc3c8e10224b3dba4db6", "loc": {"lat": 38.365256, "lng": -120.790328, "labeledLatLngs": [{"label": "display", "lat": 38.365256, "lng": -120.790328}], "cc": "US", "state": "California", "country": "United States", "formattedAddress": ["California", "United States"]}, "cat": [{"id": "4bf58dd8d48988d1e0931735", "name": "Coffee Shop", "pluralName": "Coffee Shops", "shortName": "Coffee Shop", "icon": {"prefix": "https://ss3.4sqi.net/img/categories_v2/food/coffeeshop_", "suffix": ".png"}, "primary": true}]}, "Jose's Mexican Restaurant": {"id": "4c08408d7e3fc928b010f082", "loc": {"address": "609 S State Highway 49", "lat": 38.341888916637686, "lng": -120.76687497476333, "labeledLatLngs": [{"label": "display", "lat": 38.341888916637686, "lng": -120.76687497476333}], "postalCode": "95642", "cc": "US", "city": "Jackson", "state": "CA", "country": "United States", "formattedAddress": ["609 S State Highway 49", "Jackson, CA 95642", "United States"]}, "cat": [{"id": "4bf58dd8d48988d1c1941735", "name": "Mexican Restaurant", "pluralName": "Mexican Restaurants", "shortName": "Mexican", "icon": {"prefix": "https://ss3.4sqi.net/img/categories_v2/food/mexican_", "suffix": ".png"}, "primary": true}]}, "Carl's Jr.": {"id": "55777432498ef2315d287a56", "loc": {"lat": 38.37038932945031, "lng": -120.80017479266996, "labeledLatLngs": [{"label": "display", "lat": 38.37038932945031, "lng": -120.80017479266996}], "cc": "US", "state": "California", "country": "United States", "formattedAddress": ["California", "United States"]}, "cat": [{"id": "4bf58dd8d48988d16e941735", "name": "Fast Food Restaurant", "pluralName": "Fast Food Restaurants", "shortName": "Fast Food", "icon": {"prefix": "https://ss3.4sqi.net/img/categories_v2/food/fastfood_", "suffix": ".png"}, "primary": true}]}, "Baskin-Robbins": {"id": "4b9e46a8f964a520aed636e3", "loc": {"address": "11960 State Highway 88 Ste 3014", "lat": 38.362366, "lng": -120.802649, "labeledLatLngs": [{"label": "display", "lat": 38.362366, "lng": -120.802649}], "postalCode": "95642", "cc": "US", "city": "Jackson", "state": "CA", "country": "United States", "formattedAddress": ["11960 State Highway 88 Ste 3014", "Jackson, CA 95642", "United States"]}, "cat": [{"id": "4bf58dd8d48988d1c9941735", "name": "Ice Cream Shop", "pluralName": "Ice Cream Shops", "shortName": "Ice Cream", "icon": {"prefix": "https://ss3.4sqi.net/img/categories_v2/food/icecream_", "suffix": ".png"}, "primary": true}]}, "Round Table Pizza": {"id": "4c520f66250dd13a82363b7e", "loc": {"address": "12280 Industry Blvd, Ste 81", "lat": 38.36957986272558, "lng": -120.79973101615904, "labeledLatLngs": [{"label": "display", "lat": 38.36957986272558, "lng": -120.79973101615904}], "postalCode": "95642", "cc": "US", "city": "Jackson", "state": "CA", "country": "United States", "formattedAddress": ["12280 Industry Blvd, Ste 81", "Jackson, CA 95642", "United States"]}, "cat": [{"id": "4bf58dd8d48988d1ca941735", "name": "Pizza Place", "pluralName": "Pizza Places", "shortName": "Pizza", "icon": {"prefix": "https://ss3.4sqi.net/img/categories_v2/food/pizza_", "suffix": ".png"}, "primary": true}]}, "Golden Wok": {"id": "4bc5126e6c26b7133fe3eaf3", "loc": {"address": "11984 CA-88", "lat": 38.362795, "lng": -120.801028, "labeledLatLngs": [{"label": "display", "lat": 38.362795, "lng": -120.801028}], "postalCode": "95642", "cc": "US", "city": "Jackson", "state": "CA", "country": "United States", "formattedAddress": ["11984 CA-88", "Jackson, CA 95642", "United States"]}, "cat": [{"id": "4bf58dd8d48988d145941735", "name": "Chinese Restaurant", "pluralName": "Chinese Restaurants", "shortName": "Chinese", "icon": {"prefix": "https://ss3.4sqi.net/img/categories_v2/food/asian_", "suffix": ".png"}, "primary": true}]}, "Jobo's Junction": {"id": "51e225d6498ec07b5c0e936a", "loc": {"address": "12222 New York Ranch Rd", "lat": 38.38665, "lng": -120.734099, "labeledLatLngs": [{"label": "display", "lat": 38.38665, "lng": -120.734099}], "postalCode": "95642", "cc": "US", "city": "Jackson", "state": "CA", "country": "United States", "formattedAddress": ["12222 New York Ranch Rd", "Jackson, CA 95642", "United States"]}, "cat": [{"id": "4bf58dd8d48988d1e0931735", "name": "Coffee Shop", "pluralName": "Coffee Shops", "shortName": "Coffee Shop", "icon": {"prefix": "https://ss3.4sqi.net/img/categories_v2/food/coffeeshop_", "suffix": ".png"}, "primary": true}]}, "Perko's Cafe": {"id": "4b5d011df964a520894e29e3", "loc": {"address": "11988 CA-88", "lat": 38.36347608927427, "lng": -120.80138093154717, "labeledLatLngs": [{"label": "display", "lat": 38.36347608927427, "lng": -120.80138093154717}], "postalCode": "95642", "cc": "US", "city": "Jackson", "state": "CA", "country": "United States", "formattedAddress": ["11988 CA-88", "Jackson, CA 95642", "United States"]}, "cat": [{"id": "4bf58dd8d48988d143941735", "name": "Breakfast Spot", "pluralName": "Breakfast Spots", "shortName": "Breakfast", "icon": {"prefix": "https://ss3.4sqi.net/img/categories_v2/food/breakfast_", "suffix": ".png"}, "primary": true}]}, "Lone Wolf Restaurant & Lounge": {"id": "4e4ca850bd413c4cc66b1877", "loc": {"address": "12222 New York Ranch Rd", "lat": 38.38701508564695, "lng": -120.73427373194488, "labeledLatLngs": [{"label": "display", "lat": 38.38701508564695, "lng": -120.73427373194488}], "postalCode": "95642", "cc": "US", "city": "Jackson", "state": "CA", "country": "United States", "formattedAddress": ["12222 New York Ranch Rd", "Jackson, CA 95642", "United States"]}, "cat": [{"id": "4bf58dd8d48988d1cc941735", "name": "Steakhouse", "pluralName": "Steakhouses", "shortName": "Steakhouse", "icon": {"prefix": "https://ss3.4sqi.net/img/categories_v2/food/steakhouse_", "suffix": ".png"}, "primary": true}]}, "Teresa's Place": {"id": "4c90208d590ab1f718fce47d", "loc": {"address": "1235 Jackson Gate Rd", "lat": 38.36582639198806, "lng": -120.77488805086715, "labeledLatLngs": [{"label": "display", "lat": 38.36582639198806, "lng": -120.77488805086715}], "postalCode": "95642", "cc": "US", "city": "Jackson", "state": "CA", "country": "United States", "formattedAddress": ["1235 Jackson Gate Rd", "Jackson, CA 95642", "United States"]}, "cat": [{"id": "4bf58dd8d48988d110941735", "name": "Italian Restaurant", "pluralName": "Italian Restaurants", "shortName": "Italian", "icon": {"prefix": "https://ss3.4sqi.net/img/categories_v2/food/italian_", "suffix": ".png"}, "primary": true}]}, "Starbucks": {"id": "4b7897aff964a52001d92ee3", "loc": {"address": "11248 Old Mill Lane", "lat": 38.368238, "lng": -120.799987, "labeledLatLngs": [{"label": "display", "lat": 38.368238, "lng": -120.799987}], "postalCode": "95642", "cc": "US", "city": "Jackson", "state": "CA", "country": "United States", "formattedAddress": ["11248 Old Mill Lane", "Jackson, CA 95642", "United States"]}, "cat": [{"id": "4bf58dd8d48988d1e0931735", "name": "Coffee Shop", "pluralName": "Coffee Shops", "shortName": "Coffee Shop", "icon": {"prefix": "https://ss3.4sqi.net/img/categories_v2/food/coffeeshop_", "suffix": ".png"}, "primary": true}]}, "Jamba Juice": {"id": "4c41e5b5e26920a1a1265fe7", "loc": {"address": "12240 Industry Blvd., Ste. 71,", "lat": 38.369438, "lng": -120.799189, "labeledLatLngs": [{"label": "display", "lat": 38.369438, "lng": -120.799189}], "postalCode": "95642", "cc": "US", "city": "Jackson", "state": "CA", "country": "United States", "formattedAddress": ["12240 Industry Blvd., Ste. 71,", "Jackson, CA 95642", "United States"]}, "cat": [{"id": "4bf58dd8d48988d112941735", "name": "Juice Bar", "pluralName": "Juice Bars", "shortName": "Juice Bar", "icon": {"prefix": "https://ss3.4sqi.net/img/categories_v2/food/juicebar_", "suffix": ".png"}, "primary": true}]}, "Star Donuts": {"id": "4bfaf34dcb2ca593c0f882b3", "loc": {"address": "535 S State Highway 49", "lat": 38.34316641704096, "lng": -120.76932169417424, "labeledLatLngs": [{"label": "display", "lat": 38.34316641704096, "lng": -120.76932169417424}], "postalCode": "95642", "cc": "US", "city": "Jackson", "state": "CA", "country": "United States", "formattedAddress": ["535 S State Highway 49", "Jackson, CA 95642", "United States"]}, "cat": [{"id": "4bf58dd8d48988d148941735", "name": "Donut Shop", "pluralName": "Donut Shops", "shortName": "Donuts", "icon": {"prefix": "https://ss3.4sqi.net/img/categories_v2/food/donuts_", "suffix": ".png"}, "primary": true}]}, "Agave": {"id": "4c3774161e06d13af0f7753e", "loc": {"address": "Main St.", "lat": 38.351216810504816, "lng": -120.77527521759873, "labeledLatLngs": [{"label": "display", "lat": 38.351216810504816, "lng": -120.77527521759873}], "cc": "US", "city": "Jackson", "state": "CA", "country": "United States", "formattedAddress": ["Main St.", "Jackson, CA", "United States"]}, "cat": [{"id": "4bf58dd8d48988d1c1941735", "name": "Mexican Restaurant", "pluralName": "Mexican Restaurants", "shortName": "Mexican", "icon": {"prefix": "https://ss3.4sqi.net/img/categories_v2/food/mexican_", "suffix": ".png"}, "primary": true}]}, "Bonanza Bar & Grill": {"id": "4e4c9e9ebd413c4cc66ac7d6", "loc": {"address": "835 N Main St", "lat": 38.356657, "lng": -120.777393, "labeledLatLngs": [{"label": "display", "lat": 38.356657, "lng": -120.777393}], "postalCode": "95642", "cc": "US", "city": "Jackson", "state": "CA", "country": "United States", "formattedAddress": ["835 N Main St", "Jackson, CA 95642", "United States"]}, "cat": [{"id": "4bf58dd8d48988d14e941735", "name": "American Restaurant", "pluralName": "American Restaurants", "shortName": "American", "icon": {"prefix": "https://ss3.4sqi.net/img/categories_v2/food/default_", "suffix": ".png"}, "primary": true}]}, "Ilha Dos Sabores": {"id": "4f2ab184e4b05997ed4e6345", "loc": {"address": "Shopping Da Ilha", "lat": 38.342238, "lng": -120.764789, "labeledLatLngs": [{"label": "display", "lat": 38.342238, "lng": -120.764789}], "postalCode": "95642", "cc": "US", "city": "S\u00e3o Luis", "state": "CA", "country": "United States", "formattedAddress": ["Shopping Da Ilha", "S\u00e3o Luis, CA 95642", "United States"]}, "cat": [{"id": "4bf58dd8d48988d16b941735", "name": "Brazilian Restaurant", "pluralName": "Brazilian Restaurants", "shortName": "Brazilian", "icon": {"prefix": "https://ss3.4sqi.net/img/categories_v2/food/argentinian_", "suffix": ".png"}, "primary": true}]}, "Papa Murphy's": {"id": "4c3fbf43ff711b8d96760f05", "loc": {"address": "777 S State Highway 49", "lat": 38.33996001879794, "lng": -120.76726791484954, "labeledLatLngs": [{"label": "display", "lat": 38.33996001879794, "lng": -120.76726791484954}], "postalCode": "95642", "cc": "US", "city": "Jackson", "state": "CA", "country": "United States", "formattedAddress": ["777 S State Highway 49", "Jackson, CA 95642", "United States"]}, "cat": [{"id": "4bf58dd8d48988d1ca941735", "name": "Pizza Place", "pluralName": "Pizza Places", "shortName": "Pizza", "icon": {"prefix": "https://ss3.4sqi.net/img/categories_v2/food/pizza_", "suffix": ".png"}, "primary": true}]}, "Mountain Mike's Pizza": {"id": "4bce43eaef10952142e08386", "loc": {"address": "11974 State Highway 88", "lat": 38.362160402136126, "lng": -120.80197870731354, "labeledLatLngs": [{"label": "display", "lat": 38.362160402136126, "lng": -120.80197870731354}], "postalCode": "95642", "cc": "US", "city": "Jackson", "state": "CA", "country": "United States", "formattedAddress": ["11974 State Highway 88", "Jackson, CA 95642", "United States"]}, "cat": [{"id": "4bf58dd8d48988d1ca941735", "name": "Pizza Place", "pluralName": "Pizza Places", "shortName": "Pizza", "icon": {"prefix": "https://ss3.4sqi.net/img/categories_v2/food/pizza_", "suffix": ".png"}, "primary": true}]}, "Chatter Box \"Again\"": {"id": "581fc1ab0bf6c66513a8b818", "loc": {"address": "11310 Prospect Dr Ste 50", "crossStreet": "between Highway 49 and Industry Blvd", "lat": 38.371111861140825, "lng": -120.79990804195404, "labeledLatLngs": [{"label": "display", "lat": 38.371111861140825, "lng": -120.79990804195404}], "postalCode": "95642", "cc": "US", "city": "Jackson", "state": "CA", "country": "United States", "formattedAddress": ["11310 Prospect Dr Ste 50 (between Highway 49 and Industry Blvd)", "Jackson, CA 95642", "United States"]}, "cat": [{"id": "4bf58dd8d48988d1c4941735", "name": "Restaurant", "pluralName": "Restaurants", "shortName": "Restaurant", "icon": {"prefix": "https://ss3.4sqi.net/img/categories_v2/food/default_", "suffix": ".png"}, "primary": true}]}, "Cavana's Deli": {"id": "53ebcd84498ee86ebe096d0b", "loc": {"lat": 38.37114562614762, "lng": -120.79957452382301, "labeledLatLngs": [{"label": "display", "lat": 38.37114562614762, "lng": -120.79957452382301}], "cc": "US", "city": "Sutter Creek", "state": "CA", "country": "United States", "formattedAddress": ["Sutter Creek, CA", "United States"]}, "cat": [{"id": "4bf58dd8d48988d146941735", "name": "Deli / Bodega", "pluralName": "Delis / Bodegas", "shortName": "Deli / Bodega", "icon": {"prefix": "https://ss3.4sqi.net/img/categories_v2/food/deli_", "suffix": ".png"}, "primary": true}]}, "Dickeys Barbecue Pit": {"id": "595a205cf79faa6187e8ae21", "loc": {"address": "12240 Industry Blvd Ste 74", "lat": 38.3695551, "lng": -120.7991863, "labeledLatLngs": [{"label": "display", "lat": 38.3695551, "lng": -120.7991863}], "postalCode": "95642", "cc": "US", "city": "Jackson", "state": "CA", "country": "United States", "formattedAddress": ["12240 Industry Blvd Ste 74", "Jackson, CA 95642", "United States"]}, "cat": [{"id": "4bf58dd8d48988d1c4941735", "name": "Restaurant", "pluralName": "Restaurants", "shortName": "Restaurant", "icon": {"prefix": "https://ss3.4sqi.net/img/categories_v2/food/default_", "suffix": ".png"}, "primary": true}]}, "Buscaglias Ristorante": {"id": "4f3258a119836c91c7ceb2e5", "loc": {"address": "1218 Jackson Gate Rd", "lat": 38.36601, "lng": -120.774623, "labeledLatLngs": [{"label": "display", "lat": 38.36601, "lng": -120.774623}], "postalCode": "95642", "cc": "US", "city": "Jackson", "state": "CA", "country": "United States", "formattedAddress": ["1218 Jackson Gate Rd", "Jackson, CA 95642", "United States"]}, "cat": [{"id": "4bf58dd8d48988d110941735", "name": "Italian Restaurant", "pluralName": "Italian Restaurants", "shortName": "Italian", "icon": {"prefix": "https://ss3.4sqi.net/img/categories_v2/food/italian_", "suffix": ".png"}, "primary": true}]}}, "Butte": {"Pho Noodle House": {"id": "4c783b66bd346dcb2477f1ef", "loc": {"address": "1898 Bird St", "lat": 39.512929916381836, "lng": -121.55629, "labeledLatLngs": [{"label": "display", "lat": 39.512929916381836, "lng": -121.55629}], "postalCode": "95965", "cc": "US", "city": "Oroville", "state": "CA", "country": "United States", "formattedAddress": ["1898 Bird St", "Oroville, CA 95965", "United States"]}, "cat": [{"id": "4bf58dd8d48988d142941735", "name": "Asian Restaurant", "pluralName": "Asian Restaurants", "shortName": "Asian", "icon": {"prefix": "https://ss3.4sqi.net/img/categories_v2/food/asian_", "suffix": ".png"}, "primary": true}]}, "The Exchange": {"id": "5997a19103369346216c191c", "loc": {"address": "1975 Montgomery St", "crossStreet": "Meyers", "lat": 39.51385, "lng": -121.55579, "labeledLatLngs": [{"label": "display", "lat": 39.51385, "lng": -121.55579}], "postalCode": "95965", "cc": "US", "city": "Oroville", "state": "CA", "country": "United States", "formattedAddress": ["1975 Montgomery St (Meyers)", "Oroville, CA 95965", "United States"]}, "cat": [{"id": "4bf58dd8d48988d155941735", "name": "Gastropub", "pluralName": "Gastropubs", "shortName": "Gastropub", "icon": {"prefix": "https://ss3.4sqi.net/img/categories_v2/food/gastropub_", "suffix": ".png"}, "primary": true}]}, "The Bend": {"id": "4fac985e00394dfeacb93984", "loc": {"address": "Montgomery St", "crossStreet": "Myers", "lat": 39.513559928733734, "lng": -121.555073261261, "labeledLatLngs": [{"label": "display", "lat": 39.513559928733734, "lng": -121.555073261261}], "postalCode": "95965", "cc": "US", "city": "Oroville", "state": "CA", "country": "United States", "formattedAddress": ["Montgomery St (Myers)", "Oroville, CA 95965", "United States"]}, "cat": [{"id": "4bf58dd8d48988d1bc941735", "name": "Cupcake Shop", "pluralName": "Cupcake Shops", "shortName": "Cupcakes", "icon": {"prefix": "https://ss3.4sqi.net/img/categories_v2/food/cupcakes_", "suffix": ".png"}, "primary": true}]}, "Nori Asian Kitchen & Grill": {"id": "5adbd68dd7627e09fe1ff621", "loc": {"address": "2025 Bird St", "lat": 39.513077, "lng": -121.55467, "labeledLatLngs": [{"label": "display", "lat": 39.513077, "lng": -121.55467}], "postalCode": "95965", "cc": "US", "city": "Oroville", "state": "CA", "country": "United States", "formattedAddress": ["2025 Bird St", "Oroville, CA 95965", "United States"]}, "cat": [{"id": "4bf58dd8d48988d1c4941735", "name": "Restaurant", "pluralName": "Restaurants", "shortName": "Restaurant", "icon": {"prefix": "https://ss3.4sqi.net/img/categories_v2/food/default_", "suffix": ".png"}, "primary": true}]}, "Casa Vieja": {"id": "4c1817031436a593efde8c75", "loc": {"address": "1560 Huntoon St", "lat": 39.51156715260754, "lng": -121.55547264888646, "labeledLatLngs": [{"label": "display", "lat": 39.51156715260754, "lng": -121.55547264888646}], "postalCode": "95965", "cc": "US", "city": "Oroville", "state": "CA", "country": "United States", "formattedAddress": ["1560 Huntoon St", "Oroville, CA 95965", "United States"]}, "cat": [{"id": "4bf58dd8d48988d1c1941735", "name": "Mexican Restaurant", "pluralName": "Mexican Restaurants", "shortName": "Mexican", "icon": {"prefix": "https://ss3.4sqi.net/img/categories_v2/food/mexican_", "suffix": ".png"}, "primary": true}]}, "Tong Fong Low": {"id": "4bc10e24b492d13a4677a560", "loc": {"address": "2051 Robinson St", "crossStreet": "Myers St.", "lat": 39.51247259249275, "lng": -121.55397024267923, "labeledLatLngs": [{"label": "display", "lat": 39.51247259249275, "lng": -121.55397024267923}], "postalCode": "95965", "cc": "US", "city": "Oroville", "state": "CA", "country": "United States", "formattedAddress": ["2051 Robinson St (Myers St.)", "Oroville, CA 95965", "United States"]}, "cat": [{"id": "4bf58dd8d48988d142941735", "name": "Asian Restaurant", "pluralName": "Asian Restaurants", "shortName": "Asian", "icon": {"prefix": "https://ss3.4sqi.net/img/categories_v2/food/asian_", "suffix": ".png"}, "primary": true}]}, "Little Ceasars": {"id": "4d98c7f2af3d236ad39a44c7", "loc": {"address": "2260 Oro Dam Blvd E", "lat": 39.50560374, "lng": -121.54834014, "labeledLatLngs": [{"label": "display", "lat": 39.50560374, "lng": -121.54834014}], "postalCode": "95966", "cc": "US", "city": "Oroville", "state": "CA", "country": "United States", "formattedAddress": ["2260 Oro Dam Blvd E", "Oroville, CA 95966", "United States"]}, "cat": [{"id": "4bf58dd8d48988d1ca941735", "name": "Pizza Place", "pluralName": "Pizza Places", "shortName": "Pizza", "icon": {"prefix": "https://ss3.4sqi.net/img/categories_v2/food/pizza_", "suffix": ".png"}, "primary": true}]}, "Applebee's Grill + Bar": {"id": "4c8d2887f0ce236a9e901eef", "loc": {"address": "2160 Feather River Blvd", "lat": 39.50157328, "lng": -121.5714733, "labeledLatLngs": [{"label": "display", "lat": 39.50157328, "lng": -121.5714733}], "postalCode": "95965", "cc": "US", "city": "Oroville", "state": "CA", "country": "United States", "formattedAddress": ["2160 Feather River Blvd", "Oroville, CA 95965", "United States"]}, "cat": [{"id": "4bf58dd8d48988d1c4941735", "name": "Restaurant", "pluralName": "Restaurants", "shortName": "Restaurant", "icon": {"prefix": "https://ss3.4sqi.net/img/categories_v2/food/default_", "suffix": ".png"}, "primary": true}]}, "Wendy's": {"id": "4bfecaba4e5d0f47d52b7d1f", "loc": {"address": "395 Oro Dam Blvd E", "lat": 39.4976037, "lng": -121.5722872, "labeledLatLngs": [{"label": "display", "lat": 39.4976037, "lng": -121.5722872}], "postalCode": "95965", "cc": "US", "city": "Oroville", "state": "CA", "country": "United States", "formattedAddress": ["395 Oro Dam Blvd E", "Oroville, CA 95965", "United States"]}, "cat": [{"id": "4bf58dd8d48988d16e941735", "name": "Fast Food Restaurant", "pluralName": "Fast Food Restaurants", "shortName": "Fast Food", "icon": {"prefix": "https://ss3.4sqi.net/img/categories_v2/food/fastfood_", "suffix": ".png"}, "primary": true}]}, "Celestinos New York Pizza": {"id": "4c153969a1010f477fb14d18", "loc": {"address": "2588 Olive Hwy", "lat": 39.505562320141685, "lng": -121.54501455701065, "labeledLatLngs": [{"label": "display", "lat": 39.505562320141685, "lng": -121.54501455701065}], "postalCode": "95966", "cc": "US", "city": "Oroville", "state": "CA", "country": "United States", "formattedAddress": ["2588 Olive Hwy", "Oroville, CA 95966", "United States"]}, "cat": [{"id": "4bf58dd8d48988d1ca941735", "name": "Pizza Place", "pluralName": "Pizza Places", "shortName": "Pizza", "icon": {"prefix": "https://ss3.4sqi.net/img/categories_v2/food/pizza_", "suffix": ".png"}, "primary": true}]}, "The Patio": {"id": "57942a10498ee9590bb2c94f", "loc": {"address": "2450 Oro Dam Blvd E", "crossStreet": "Spencer Ave", "lat": 39.505675, "lng": -121.547811, "labeledLatLngs": [{"label": "display", "lat": 39.505675, "lng": -121.547811}], "postalCode": "95966", "cc": "US", "city": "Oroville", "state": "CA", "country": "United States", "formattedAddress": ["2450 Oro Dam Blvd E (Spencer Ave)", "Oroville, CA 95966", "United States"]}, "cat": [{"id": "4bf58dd8d48988d14e941735", "name": "American Restaurant", "pluralName": "American Restaurants", "shortName": "American", "icon": {"prefix": "https://ss3.4sqi.net/img/categories_v2/food/default_", "suffix": ".png"}, "primary": true}]}, "The Hofbrau": {"id": "4f63b7e0e4b09987d0aac97e", "loc": {"address": "109 Table Mountain Blvd", "lat": 39.52236481522511, "lng": -121.5560746847452, "labeledLatLngs": [{"label": "display", "lat": 39.52236481522511, "lng": -121.5560746847452}], "postalCode": "95965", "cc": "US", "city": "Oroville", "state": "CA", "country": "United States", "formattedAddress": ["109 Table Mountain Blvd", "Oroville, CA 95965", "United States"]}, "cat": [{"id": "4bf58dd8d48988d1c4941735", "name": "Restaurant", "pluralName": "Restaurants", "shortName": "Restaurant", "icon": {"prefix": "https://ss3.4sqi.net/img/categories_v2/food/default_", "suffix": ".png"}, "primary": true}]}, "The Boss": {"id": "4cb89de97148f04dc662d1ab", "loc": {"address": "2482 Montgomery St", "crossStreet": "Washington", "lat": 39.51612745, "lng": -121.550026, "labeledLatLngs": [{"label": "display", "lat": 39.51612745, "lng": -121.550026}], "postalCode": "95965", "cc": "US", "city": "Oroville", "state": "CA", "country": "United States", "formattedAddress": ["2482 Montgomery St (Washington)", "Oroville, CA 95965", "United States"]}, "cat": [{"id": "4bf58dd8d48988d16c941735", "name": "Burger Joint", "pluralName": "Burger Joints", "shortName": "Burgers", "icon": {"prefix": "https://ss3.4sqi.net/img/categories_v2/food/burger_", "suffix": ".png"}, "primary": true}]}, "Taco Bell": {"id": "4c2f8e8c16adc928e3c5bd9c", "loc": {"address": "2590 Feather River Blvd", "lat": 39.494453944025025, "lng": -121.57281875610352, "labeledLatLngs": [{"label": "display", "lat": 39.494453944025025, "lng": -121.57281875610352}], "postalCode": "95965", "cc": "US", "city": "Oroville", "state": "CA", "country": "United States", "formattedAddress": ["2590 Feather River Blvd", "Oroville, CA 95965", "United States"]}, "cat": [{"id": "4bf58dd8d48988d16e941735", "name": "Fast Food Restaurant", "pluralName": "Fast Food Restaurants", "shortName": "Fast Food", "icon": {"prefix": "https://ss3.4sqi.net/img/categories_v2/food/fastfood_", "suffix": ".png"}, "primary": true}]}, "Bulldog Express": {"id": "5a032c628b98fd3043b6de05", "loc": {"lat": 39.501073, "lng": -121.571055, "labeledLatLngs": [{"label": "display", "lat": 39.501073, "lng": -121.571055}], "postalCode": "95965", "cc": "US", "city": "Oroville", "state": "CA", "country": "United States", "formattedAddress": ["Oroville, CA 95965", "United States"]}, "cat": [{"id": "52e81612bcbc57f1066b7a00", "name": "Comfort Food Restaurant", "pluralName": "Comfort Food Restaurants", "shortName": "Comfort Food", "icon": {"prefix": "https://ss3.4sqi.net/img/categories_v2/food/default_", "suffix": ".png"}, "primary": true}]}, "Round Table Pizza": {"id": "4d2d0d1bf728b60c769e97fd", "loc": {"address": "1124 Oro Dam Blvd E", "crossStreet": "Food Maxx Shopping Center", "lat": 39.50225472450256, "lng": -121.56263709068298, "labeledLatLngs": [{"label": "display", "lat": 39.50225472450256, "lng": -121.56263709068298}], "postalCode": "95965", "cc": "US", "city": "Oroville", "state": "CA", "country": "United States", "formattedAddress": ["1124 Oro Dam Blvd E (Food Maxx Shopping Center)", "Oroville, CA 95965", "United States"]}, "cat": [{"id": "4bf58dd8d48988d1ca941735", "name": "Pizza Place", "pluralName": "Pizza Places", "shortName": "Pizza", "icon": {"prefix": "https://ss3.4sqi.net/img/categories_v2/food/pizza_", "suffix": ".png"}, "primary": true}]}, "YoVille": {"id": "4e1baf366284102ec1969d83", "loc": {"address": "2550 Olive Hwy", "lat": 39.50600224420314, "lng": -121.54537692693972, "labeledLatLngs": [{"label": "display", "lat": 39.50600224420314, "lng": -121.54537692693972}], "postalCode": "95966", "cc": "US", "city": "Oroville", "state": "CA", "country": "United States", "formattedAddress": ["2550 Olive Hwy", "Oroville, CA 95966", "United States"]}, "cat": [{"id": "4bf58dd8d48988d1c9941735", "name": "Ice Cream Shop", "pluralName": "Ice Cream Shops", "shortName": "Ice Cream", "icon": {"prefix": "https://ss3.4sqi.net/img/categories_v2/food/icecream_", "suffix": ".png"}, "primary": true}]}, "Jenn's Cafe": {"id": "5207c3e311d2e037aca49d24", "loc": {"lat": 39.505897, "lng": -121.552287, "labeledLatLngs": [{"label": "display", "lat": 39.505897, "lng": -121.552287}], "cc": "US", "city": "Oroville", "state": "CA", "country": "United States", "formattedAddress": ["Oroville, CA", "United States"]}, "cat": [{"id": "4bf58dd8d48988d14e941735", "name": "American Restaurant", "pluralName": "American Restaurants", "shortName": "American", "icon": {"prefix": "https://ss3.4sqi.net/img/categories_v2/food/default_", "suffix": ".png"}, "primary": true}]}, "Papacitos": {"id": "4ced71fa7b943704b0042753", "loc": {"address": "1665 Oroville Dam Blvd E", "lat": 39.50294126061693, "lng": -121.55381667422895, "labeledLatLngs": [{"label": "display", "lat": 39.50294126061693, "lng": -121.55381667422895}], "postalCode": "95966", "cc": "US", "city": "Oroville", "state": "CA", "country": "United States", "formattedAddress": ["1665 Oroville Dam Blvd E", "Oroville, CA 95966", "United States"]}, "cat": [{"id": "4bf58dd8d48988d1c1941735", "name": "Mexican Restaurant", "pluralName": "Mexican Restaurants", "shortName": "Mexican", "icon": {"prefix": "https://ss3.4sqi.net/img/categories_v2/food/mexican_", "suffix": ".png"}, "primary": true}]}, "Fosters Freeze": {"id": "4d61a3bee4fe5481fef28d9e", "loc": {"address": "970 Oro Dam Blvd. East", "lat": 39.500368, "lng": -121.564377, "labeledLatLngs": [{"label": "display", "lat": 39.500368, "lng": -121.564377}], "postalCode": "95966", "cc": "US", "city": "Oroville", "state": "CA", "country": "United States", "formattedAddress": ["970 Oro Dam Blvd. East", "Oroville, CA 95966", "United States"]}, "cat": [{"id": "4bf58dd8d48988d16c941735", "name": "Burger Joint", "pluralName": "Burger Joints", "shortName": "Burgers", "icon": {"prefix": "https://ss3.4sqi.net/img/categories_v2/food/burger_", "suffix": ".png"}, "primary": true}]}, "Carl's Jr": {"id": "5ba667d04c954c002c5f5fa2", "loc": {"address": "2730 Olive Hwy", "lat": 39.504547, "lng": -121.54233, "labeledLatLngs": [{"label": "display", "lat": 39.504547, "lng": -121.54233}], "postalCode": "95966", "cc": "US", "city": "Oroville", "state": "CA", "country": "United States", "formattedAddress": ["2730 Olive Hwy", "Oroville, CA 95966", "United States"]}, "cat": [{"id": "4bf58dd8d48988d16e941735", "name": "Fast Food Restaurant", "pluralName": "Fast Food Restaurants", "shortName": "Fast Food", "icon": {"prefix": "https://ss3.4sqi.net/img/categories_v2/food/fastfood_", "suffix": ".png"}, "primary": true}]}, "7-Eleven": {"id": "4cd85dd58f949eb0ad2975ae", "loc": {"address": "2125 Monte Vista Ave", "crossStreet": "at Lincoln Blvd", "lat": 39.477017, "lng": -121.547551, "labeledLatLngs": [{"label": "display", "lat": 39.477017, "lng": -121.547551}], "postalCode": "95966", "cc": "US", "city": "Oroville", "state": "CA", "country": "United States", "formattedAddress": ["2125 Monte Vista Ave (at Lincoln Blvd)", "Oroville, CA 95966", "United States"]}, "cat": [{"id": "4d954b0ea243a5684a65b473", "name": "Convenience Store", "pluralName": "Convenience Stores", "shortName": "Convenience Store", "icon": {"prefix": "https://ss3.4sqi.net/img/categories_v2/shops/conveniencestore_", "suffix": ".png"}, "primary": true}]}, "The Good Earth Coffee & Tea": {"id": "4bafaf98f964a52085173ce3", "loc": {"address": "980 Oro Dam Blvd E", "lat": 39.50054720461168, "lng": -121.56391630764472, "labeledLatLngs": [{"label": "display", "lat": 39.50054720461168, "lng": -121.56391630764472}], "postalCode": "95965", "cc": "US", "city": "Oroville", "state": "CA", "country": "United States", "formattedAddress": ["980 Oro Dam Blvd E", "Oroville, CA 95965", "United States"]}, "cat": [{"id": "4bf58dd8d48988d1e0931735", "name": "Coffee Shop", "pluralName": "Coffee Shops", "shortName": "Coffee Shop", "icon": {"prefix": "https://ss3.4sqi.net/img/categories_v2/food/coffeeshop_", "suffix": ".png"}, "primary": true}]}, "Denny's": {"id": "4bae76b8f964a520a5b53be3", "loc": {"address": "2470 Oro Dam Blvd E", "lat": 39.506080713061266, "lng": -121.54727464171975, "labeledLatLngs": [{"label": "display", "lat": 39.506080713061266, "lng": -121.54727464171975}], "postalCode": "95966", "cc": "US", "city": "Oroville", "state": "CA", "country": "United States", "formattedAddress": ["2470 Oro Dam Blvd E", "Oroville, CA 95966", "United States"]}, "cat": [{"id": "4bf58dd8d48988d147941735", "name": "Diner", "pluralName": "Diners", "shortName": "Diner", "icon": {"prefix": "https://ss3.4sqi.net/img/categories_v2/food/diner_", "suffix": ".png"}, "primary": true}]}, "24 Hour Cafe at Gold Country Casino": {"id": "4f94889b77161f6f7e9b8838", "loc": {"address": "4020 Olive Hwy", "lat": 39.50454958770672, "lng": -121.50554839709788, "labeledLatLngs": [{"label": "display", "lat": 39.50454958770672, "lng": -121.50554839709788}], "postalCode": "95966", "cc": "US", "city": "Oroville", "state": "CA", "country": "United States", "formattedAddress": ["4020 Olive Hwy", "Oroville, CA 95966", "United States"]}, "cat": [{"id": "4bf58dd8d48988d16d941735", "name": "Caf\u00e9", "pluralName": "Caf\u00e9s", "shortName": "Caf\u00e9", "icon": {"prefix": "https://ss3.4sqi.net/img/categories_v2/food/cafe_", "suffix": ".png"}, "primary": true}]}, "SONIC Drive-In": {"id": "4d93dc458deb8cfa3bf033c0", "loc": {"address": "500 Oro Dam Blvd E", "lat": 39.4987923116662, "lng": -121.569183029396, "labeledLatLngs": [{"label": "display", "lat": 39.4987923116662, "lng": -121.569183029396}], "postalCode": "95965", "cc": "US", "city": "Oroville", "state": "CA", "country": "United States", "formattedAddress": ["500 Oro Dam Blvd E", "Oroville, CA 95965", "United States"]}, "cat": [{"id": "4bf58dd8d48988d16e941735", "name": "Fast Food Restaurant", "pluralName": "Fast Food Restaurants", "shortName": "Fast Food", "icon": {"prefix": "https://ss3.4sqi.net/img/categories_v2/food/fastfood_", "suffix": ".png"}, "primary": true}]}, "Panda Express": {"id": "576c8f39498e95e8e3e1840d", "loc": {"address": "480 Oro Dam Blvd E", "crossStreet": "at Feather River Blvd", "lat": 39.498413, "lng": -121.569954, "labeledLatLngs": [{"label": "display", "lat": 39.498413, "lng": -121.569954}], "postalCode": "95965", "cc": "US", "city": "Oroville", "state": "CA", "country": "United States", "formattedAddress": ["480 Oro Dam Blvd E (at Feather River Blvd)", "Oroville, CA 95965", "United States"]}, "cat": [{"id": "4bf58dd8d48988d145941735", "name": "Chinese Restaurant", "pluralName": "Chinese Restaurants", "shortName": "Chinese", "icon": {"prefix": "https://ss3.4sqi.net/img/categories_v2/food/asian_", "suffix": ".png"}, "primary": true}]}, "Mike's Grande Burger": {"id": "4c16ab7874fb20a191785012", "loc": {"address": "2869 Olive Hwy.", "lat": 39.5029388719954, "lng": -121.53990223118528, "labeledLatLngs": [{"label": "display", "lat": 39.5029388719954, "lng": -121.53990223118528}], "postalCode": "95966", "cc": "US", "city": "Oroville", "state": "CA", "country": "United States", "formattedAddress": ["2869 Olive Hwy.", "Oroville, CA 95966", "United States"]}, "cat": [{"id": "4bf58dd8d48988d1c1941735", "name": "Mexican Restaurant", "pluralName": "Mexican Restaurants", "shortName": "Mexican", "icon": {"prefix": "https://ss3.4sqi.net/img/categories_v2/food/mexican_", "suffix": ".png"}, "primary": true}]}, "Los Comprades": {"id": "4cd7112089eb6dcbf123331e", "loc": {"address": "771 Oro Dam Blvd W", "lat": 39.49772924, "lng": -121.58326487, "labeledLatLngs": [{"label": "display", "lat": 39.49772924, "lng": -121.58326487}], "postalCode": "95965", "cc": "US", "city": "Oroville", "state": "CA", "country": "United States", "formattedAddress": ["771 Oro Dam Blvd W", "Oroville, CA 95965", "United States"]}, "cat": [{"id": "4bf58dd8d48988d1c1941735", "name": "Mexican Restaurant", "pluralName": "Mexican Restaurants", "shortName": "Mexican", "icon": {"prefix": "https://ss3.4sqi.net/img/categories_v2/food/mexican_", "suffix": ".png"}, "primary": true}]}, "Collin's And Denny": {"id": "4cb8b911035d236aeb5ecf4e", "loc": {"lat": 39.52018547732635, "lng": -121.57445754758741, "labeledLatLngs": [{"label": "display", "lat": 39.52018547732635, "lng": -121.57445754758741}], "cc": "US", "city": "Oroville", "state": "CA", "country": "United States", "formattedAddress": ["Oroville, CA", "United States"]}, "cat": [{"id": "4bf58dd8d48988d146941735", "name": "Deli / Bodega", "pluralName": "Delis / Bodegas", "shortName": "Deli / Bodega", "icon": {"prefix": "https://ss3.4sqi.net/img/categories_v2/food/deli_", "suffix": ".png"}, "primary": true}]}, "Quickly": {"id": "5681f376498edeed7f7d20da", "loc": {"address": "1124 Oro Dam Blvd", "lat": 39.502208, "lng": -121.562584, "labeledLatLngs": [{"label": "display", "lat": 39.502208, "lng": -121.562584}], "postalCode": "95965", "cc": "US", "city": "Oroville", "state": "CA", "country": "United States", "formattedAddress": ["1124 Oro Dam Blvd", "Oroville, CA 95965", "United States"]}, "cat": [{"id": "4bf58dd8d48988d142941735", "name": "Asian Restaurant", "pluralName": "Asian Restaurants", "shortName": "Asian", "icon": {"prefix": "https://ss3.4sqi.net/img/categories_v2/food/asian_", "suffix": ".png"}, "primary": true}]}, "Shakey's Pizza Parlor": {"id": "4be722c52457a593eb97ad15", "loc": {"address": "2890 Olive Hwy", "lat": 39.502910031150115, "lng": -121.5401679811135, "labeledLatLngs": [{"label": "display", "lat": 39.502910031150115, "lng": -121.5401679811135}], "postalCode": "95966", "cc": "US", "city": "Oroville", "state": "CA", "country": "United States", "formattedAddress": ["2890 Olive Hwy", "Oroville, CA 95966", "United States"]}, "cat": [{"id": "4bf58dd8d48988d1ca941735", "name": "Pizza Place", "pluralName": "Pizza Places", "shortName": "Pizza", "icon": {"prefix": "https://ss3.4sqi.net/img/categories_v2/food/pizza_", "suffix": ".png"}, "primary": true}]}, "Starbucks": {"id": "5762b81b498e24ee52facdca", "loc": {"address": "480 East Oroville Dam Blvd.", "lat": 39.498482871672856, "lng": -121.5697280593137, "labeledLatLngs": [{"label": "display", "lat": 39.498482871672856, "lng": -121.5697280593137}], "postalCode": "95965", "cc": "US", "city": "Oroville", "state": "CA", "country": "United States", "formattedAddress": ["480 East Oroville Dam Blvd.", "Oroville, CA 95965", "United States"]}, "cat": [{"id": "4bf58dd8d48988d1e0931735", "name": "Coffee Shop", "pluralName": "Coffee Shops", "shortName": "Coffee Shop", "icon": {"prefix": "https://ss3.4sqi.net/img/categories_v2/food/coffeeshop_", "suffix": ".png"}, "primary": true}]}, "Jake's burgers And More": {"id": "4bd8bff535aad13a4f3191f3", "loc": {"address": "1751 Oro Dam Blvd E Ste 11", "lat": 39.50307785, "lng": -121.553488, "labeledLatLngs": [{"label": "display", "lat": 39.50307785, "lng": -121.553488}], "postalCode": "95966", "cc": "US", "city": "Oroville", "state": "CA", "country": "United States", "formattedAddress": ["1751 Oro Dam Blvd E Ste 11", "Oroville, CA 95966", "United States"]}, "cat": [{"id": "4bf58dd8d48988d16c941735", "name": "Burger Joint", "pluralName": "Burger Joints", "shortName": "Burgers", "icon": {"prefix": "https://ss3.4sqi.net/img/categories_v2/food/burger_", "suffix": ".png"}, "primary": true}]}, "Gold City Grill": {"id": "4ca3954cf832a1cda2db9ee5", "loc": {"address": "970 Oroville Dam Blvd E", "lat": 39.49965270314674, "lng": -121.5646751689885, "labeledLatLngs": [{"label": "display", "lat": 39.49965270314674, "lng": -121.5646751689885}], "postalCode": "95965", "cc": "US", "city": "Oroville", "state": "CA", "country": "United States", "formattedAddress": ["970 Oroville Dam Blvd E", "Oroville, CA 95965", "United States"]}, "cat": [{"id": "4bf58dd8d48988d1df931735", "name": "BBQ Joint", "pluralName": "BBQ Joints", "shortName": "BBQ", "icon": {"prefix": "https://ss3.4sqi.net/img/categories_v2/food/bbqalt_", "suffix": ".png"}, "primary": true}]}, "McDonald's": {"id": "4c28ecc7783d9c7426678f6b", "loc": {"address": "445 Oro Dam Blvd E", "crossStreet": "at Feather River Blvd.", "lat": 39.497667270816876, "lng": -121.57145619392395, "labeledLatLngs": [{"label": "display", "lat": 39.497667270816876, "lng": -121.57145619392395}], "postalCode": "95965", "cc": "US", "city": "Oroville", "state": "CA", "country": "United States", "formattedAddress": ["445 Oro Dam Blvd E (at Feather River Blvd.)", "Oroville, CA 95965", "United States"]}, "cat": [{"id": "4bf58dd8d48988d16e941735", "name": "Fast Food Restaurant", "pluralName": "Fast Food Restaurants", "shortName": "Fast Food", "icon": {"prefix": "https://ss3.4sqi.net/img/categories_v2/food/fastfood_", "suffix": ".png"}, "primary": true}]}, "La Coste\u00f1a": {"id": "4c76bb1b59a3236aa28abf18", "loc": {"address": "2335 Lincoln St", "lat": 39.50459609355099, "lng": -121.55105762232846, "labeledLatLngs": [{"label": "display", "lat": 39.50459609355099, "lng": -121.55105762232846}], "postalCode": "95966", "cc": "US", "city": "Oroville", "state": "CA", "country": "United States", "formattedAddress": ["2335 Lincoln St", "Oroville, CA 95966", "United States"]}, "cat": [{"id": "4bf58dd8d48988d1c1941735", "name": "Mexican Restaurant", "pluralName": "Mexican Restaurants", "shortName": "Mexican", "icon": {"prefix": "https://ss3.4sqi.net/img/categories_v2/food/mexican_", "suffix": ".png"}, "primary": true}]}, "Mountain Mike's Pizza": {"id": "4e4d1c79bd413c4cc66ec0f2", "loc": {"address": "1901 Oro Dam Blvd E", "lat": 39.50351441732367, "lng": -121.55029108465578, "labeledLatLngs": [{"label": "display", "lat": 39.50351441732367, "lng": -121.55029108465578}], "postalCode": "95966", "cc": "US", "city": "Oroville", "state": "CA", "country": "United States", "formattedAddress": ["1901 Oro Dam Blvd E", "Oroville, CA 95966", "United States"]}, "cat": [{"id": "4bf58dd8d48988d1ca941735", "name": "Pizza Place", "pluralName": "Pizza Places", "shortName": "Pizza", "icon": {"prefix": "https://ss3.4sqi.net/img/categories_v2/food/pizza_", "suffix": ".png"}, "primary": true}]}, "Cornucopia": {"id": "4bc0bdbcb492d13ad2c6a460", "loc": {"address": "515 Montgomery St", "lat": 39.508764223119286, "lng": -121.5707194137614, "labeledLatLngs": [{"label": "display", "lat": 39.508764223119286, "lng": -121.5707194137614}], "postalCode": "95965", "cc": "US", "city": "Oroville", "state": "CA", "country": "United States", "formattedAddress": ["515 Montgomery St", "Oroville, CA 95965", "United States"]}, "cat": [{"id": "4bf58dd8d48988d14e941735", "name": "American Restaurant", "pluralName": "American Restaurants", "shortName": "American", "icon": {"prefix": "https://ss3.4sqi.net/img/categories_v2/food/default_", "suffix": ".png"}, "primary": true}]}, "Waffle Shop Country Cooking": {"id": "4c83f09de602b1f7c869aa7a", "loc": {"address": "2107 Feather River Blvd", "lat": 39.50158438, "lng": -121.57064, "labeledLatLngs": [{"label": "display", "lat": 39.50158438, "lng": -121.57064}], "postalCode": "95965", "cc": "US", "city": "Oroville", "state": "CA", "country": "United States", "formattedAddress": ["2107 Feather River Blvd", "Oroville, CA 95965", "United States"]}, "cat": [{"id": "4bf58dd8d48988d143941735", "name": "Breakfast Spot", "pluralName": "Breakfast Spots", "shortName": "Breakfast", "icon": {"prefix": "https://ss3.4sqi.net/img/categories_v2/food/breakfast_", "suffix": ".png"}, "primary": true}]}, "Jack in the Box": {"id": "4bdeb2db0ee3a593f08231b0", "loc": {"address": "1797 Oro Dam Blvd E", "lat": 39.50348137966353, "lng": -121.55245406010454, "labeledLatLngs": [{"label": "display", "lat": 39.50348137966353, "lng": -121.55245406010454}], "postalCode": "95966", "cc": "US", "city": "Oroville", "state": "CA", "country": "United States", "formattedAddress": ["1797 Oro Dam Blvd E", "Oroville, CA 95966", "United States"]}, "cat": [{"id": "4bf58dd8d48988d16e941735", "name": "Fast Food Restaurant", "pluralName": "Fast Food Restaurants", "shortName": "Fast Food", "icon": {"prefix": "https://ss3.4sqi.net/img/categories_v2/food/fastfood_", "suffix": ".png"}, "primary": true}]}, "Burger King": {"id": "4c37db7b0a71c9b6eabc3fc9", "loc": {"address": "855 Oro Dam Blvd E", "lat": 39.49922883061741, "lng": -121.56563042546622, "labeledLatLngs": [{"label": "display", "lat": 39.49922883061741, "lng": -121.56563042546622}], "postalCode": "95965", "cc": "US", "city": "Oroville", "state": "CA", "country": "United States", "formattedAddress": ["855 Oro Dam Blvd E", "Oroville, CA 95965", "United States"]}, "cat": [{"id": "4bf58dd8d48988d16e941735", "name": "Fast Food Restaurant", "pluralName": "Fast Food Restaurants", "shortName": "Fast Food", "icon": {"prefix": "https://ss3.4sqi.net/img/categories_v2/food/fastfood_", "suffix": ".png"}, "primary": true}]}, "Scoops Cafe": {"id": "4f321a9d19836c91c7b63f6c", "loc": {"address": "2005 Bird St", "lat": 39.513246, "lng": -121.554799, "labeledLatLngs": [{"label": "display", "lat": 39.513246, "lng": -121.554799}], "postalCode": "95965", "cc": "US", "city": "Oroville", "state": "CA", "country": "United States", "formattedAddress": ["2005 Bird St", "Oroville, CA 95965", "United States"]}, "cat": [{"id": "4d4b7105d754a06374d81259", "name": "Food", "pluralName": "Food", "shortName": "Food", "icon": {"prefix": "https://ss3.4sqi.net/img/categories_v2/food/default_", "suffix": ".png"}, "primary": true}]}, "Jake's Catering": {"id": "501d79a3e4b0efa1ebda9fbf", "loc": {"lat": 39.507161, "lng": -121.545995, "labeledLatLngs": [{"label": "display", "lat": 39.507161, "lng": -121.545995}], "postalCode": "95966", "cc": "US", "city": "Oroville", "state": "CA", "country": "United States", "formattedAddress": ["Oroville, CA 95966", "United States"]}, "cat": [{"id": "4bf58dd8d48988d16c941735", "name": "Burger Joint", "pluralName": "Burger Joints", "shortName": "Burgers", "icon": {"prefix": "https://ss3.4sqi.net/img/categories_v2/food/burger_", "suffix": ".png"}, "primary": true}]}, "Half-Time Take and Bake Pizza": {"id": "4f3293d419836c91c7e5675d", "loc": {"address": "1900 Oro Dam Blvd E", "lat": 39.504573, "lng": -121.551039, "labeledLatLngs": [{"label": "display", "lat": 39.504573, "lng": -121.551039}], "postalCode": "95966", "cc": "US", "city": "Oroville", "state": "CA", "country": "United States", "formattedAddress": ["1900 Oro Dam Blvd E", "Oroville, CA 95966", "United States"]}, "cat": [{"id": "4bf58dd8d48988d1ca941735", "name": "Pizza Place", "pluralName": "Pizza Places", "shortName": "Pizza", "icon": {"prefix": "https://ss3.4sqi.net/img/categories_v2/food/pizza_", "suffix": ".png"}, "primary": true}]}, "Foothill Meat Company": {"id": "4e62759c7d8b854089ab9453", "loc": {"lat": 39.479056917299985, "lng": -121.5305968776268, "labeledLatLngs": [{"label": "display", "lat": 39.479056917299985, "lng": -121.5305968776268}], "cc": "US", "city": "Oroville", "state": "CA", "country": "United States", "formattedAddress": ["Oroville, CA", "United States"]}, "cat": [{"id": "4d4b7105d754a06374d81259", "name": "Food", "pluralName": "Food", "shortName": "Food", "icon": {"prefix": "https://ss3.4sqi.net/img/categories_v2/food/default_", "suffix": ".png"}, "primary": true}]}, "El Toro": {"id": "4db9ecfdced7ea5898c74662", "loc": {"address": "579 oro dam blvd", "lat": 39.498325, "lng": -121.568484, "labeledLatLngs": [{"label": "display", "lat": 39.498325, "lng": -121.568484}], "postalCode": "95965", "cc": "US", "city": "Oroville", "state": "CA", "country": "United States", "formattedAddress": ["579 oro dam blvd", "Oroville, CA 95965", "United States"]}, "cat": [{"id": "4bf58dd8d48988d1cb941735", "name": "Food Truck", "pluralName": "Food Trucks", "shortName": "Food Truck", "icon": {"prefix": "https://ss3.4sqi.net/img/categories_v2/food/streetfood_", "suffix": ".png"}, "primary": true}]}, "Ehmann Olive Co": {"id": "4f32b68819836c91c7f261b4", "loc": {"address": "1800 Idora St", "lat": 39.493069, "lng": -121.552389, "labeledLatLngs": [{"label": "display", "lat": 39.493069, "lng": -121.552389}], "postalCode": "95966", "cc": "US", "city": "Oroville", "state": "CA", "country": "United States", "formattedAddress": ["1800 Idora St", "Oroville, CA 95966", "United States"]}, "cat": [{"id": "4d4b7105d754a06374d81259", "name": "Food", "pluralName": "Food", "shortName": "Food", "icon": {"prefix": "https://ss3.4sqi.net/img/categories_v2/food/default_", "suffix": ".png"}, "primary": true}]}, "Dutch Bros. Coffee": {"id": "4bc12d94920eb713146b1a2c", "loc": {"address": "2340 Oro Dam Blvd E", "crossStreet": "at Washington Blvd", "lat": 39.50570837566055, "lng": -121.54769119732688, "labeledLatLngs": [{"label": "display", "lat": 39.50570837566055, "lng": -121.54769119732688}], "postalCode": "95966", "cc": "US", "city": "Oroville", "state": "CA", "country": "United States", "formattedAddress": ["2340 Oro Dam Blvd E (at Washington Blvd)", "Oroville, CA 95966", "United States"]}, "cat": [{"id": "4bf58dd8d48988d1e0931735", "name": "Coffee Shop", "pluralName": "Coffee Shops", "shortName": "Coffee Shop", "icon": {"prefix": "https://ss3.4sqi.net/img/categories_v2/food/coffeeshop_", "suffix": ".png"}, "primary": true}]}}, "Calaveras": {"Black Bart Inn & Restaurant": {"id": "4de193da52b1d38d295a09a2", "loc": {"address": "55 W St Charles St", "crossStreet": "at N Main St", "lat": 38.196758509926084, "lng": -120.68090915679932, "labeledLatLngs": [{"label": "display", "lat": 38.196758509926084, "lng": -120.68090915679932}], "postalCode": "95249", "cc": "US", "city": "San Andreas", "state": "CA", "country": "United States", "formattedAddress": ["55 W St Charles St (at N Main St)", "San Andreas, CA 95249", "United States"]}, "cat": [{"id": "4bf58dd8d48988d1fa931735", "name": "Hotel", "pluralName": "Hotels", "shortName": "Hotel", "icon": {"prefix": "https://ss3.4sqi.net/img/categories_v2/travel/hotel_", "suffix": ".png"}, "primary": true}]}, "country bagel": {"id": "56dca4d3498e2e8d42d5bddb", "loc": {"lat": 38.195699, "lng": -120.68126, "labeledLatLngs": [{"label": "display", "lat": 38.195699, "lng": -120.68126}], "cc": "US", "city": "San Andreas", "state": "CA", "country": "United States", "formattedAddress": ["San Andreas, CA", "United States"]}, "cat": [{"id": "4bf58dd8d48988d179941735", "name": "Bagel Shop", "pluralName": "Bagel Shops", "shortName": "Bagels", "icon": {"prefix": "https://ss3.4sqi.net/img/categories_v2/food/bagels_", "suffix": ".png"}, "primary": true}]}, "Star Donuts": {"id": "4b8030ebf964a520de5a30e3", "loc": {"address": "37 E. Saint Charles St.", "lat": 38.195960859371205, "lng": -120.67930520180644, "labeledLatLngs": [{"label": "display", "lat": 38.195960859371205, "lng": -120.67930520180644}], "postalCode": "95249", "cc": "US", "city": "San Andreas", "state": "CA", "country": "United States", "formattedAddress": ["37 E. Saint Charles St.", "San Andreas, CA 95249", "United States"]}, "cat": [{"id": "4bf58dd8d48988d148941735", "name": "Donut Shop", "pluralName": "Donut Shops", "shortName": "Donuts", "icon": {"prefix": "https://ss3.4sqi.net/img/categories_v2/food/donuts_", "suffix": ".png"}, "primary": true}]}, "El Mezcal": {"id": "5205997b11d262b89b5d9d69", "loc": {"address": "126 E. St. Charles St", "lat": 38.19715715764769, "lng": -120.68339316309908, "labeledLatLngs": [{"label": "display", "lat": 38.19715715764769, "lng": -120.68339316309908}], "postalCode": "95249", "cc": "US", "city": "San Andreas", "state": "CA", "country": "United States", "formattedAddress": ["126 E. St. Charles St", "San Andreas, CA 95249", "United States"]}, "cat": [{"id": "4bf58dd8d48988d1c1941735", "name": "Mexican Restaurant", "pluralName": "Mexican Restaurants", "shortName": "Mexican", "icon": {"prefix": "https://ss3.4sqi.net/img/categories_v2/food/mexican_", "suffix": ".png"}, "primary": true}]}, "San Andreas Mini Mart": {"id": "4be99fe862c0c9282ddfdfd4", "loc": {"address": "401 E Street Charles Street", "lat": 38.19134871109029, "lng": -120.67518341357372, "labeledLatLngs": [{"label": "display", "lat": 38.19134871109029, "lng": -120.67518341357372}], "postalCode": "95249", "cc": "US", "city": "San Andreas", "state": "CA", "country": "United States", "formattedAddress": ["401 E Street Charles Street", "San Andreas, CA 95249", "United States"]}, "cat": [{"id": "4bf58dd8d48988d113951735", "name": "Gas Station", "pluralName": "Gas Stations", "shortName": "Gas Station", "icon": {"prefix": "https://ss3.4sqi.net/img/categories_v2/shops/gas_", "suffix": ".png"}, "primary": true}]},